{"type": "FeatureCollection", "features": [{"id": "0", "type": "Feature", "properties": {"address": "Nizamabad, Andhra Pradesh", "code": "NZB", "name": "NIZAMABAD", "state": "Andhra Pradesh", "zone": "SCR"}, "geometry": {"type": "Point", "coordinates": [78.103238, 18.679164999999998]}}, {"id": "1", "type": "Feature", "properties": {"address": "Kumbakonam, Tamil Nadu", "code": "KMU", "name": "KUMBAKONAM", "state": "Tamil Nadu", "zone": "SR"}, "geometry": {"type": "Point", "coordinates": [79.388644, 10.952962]}}, {"id": "2", "type": "Feature", "properties": {"address": "Sivaganga, Tamil Nadu", "code": "MNM", "name": "MANAMADURAI JN", "state": "Tamil Nadu", "zone": "SR"}, "geometry": {"type": "Point", "coordinates": [78.45351, 9.681538999999999]}}, {"id": "4", "type": "Feature", "properties": {"address": "Near New Bus Stand Shirdi Sainagar, Maharashtra", "code": "SNSI", "name": "SAINAGAR SHIRDI", "state": "Maharashtra", "zone": "CR"}, "geometry": {"type": "Point", "coordinates": [74.4806877, 19.780792299999998]}}, {"id": "5", "type": "Feature", "properties": {"address": "Dhola, Gujarat", "code": "DLJ", "name": "DHOLA JN", "state": "Gujarat", "zone": "WR"}, "geometry": {"type": "Point", "coordinates": [71.738273, 21.822549000000002]}}, {"id": "8", "type": "Feature", "properties": {"address": "Pilibhit, Uttar Pradesh", "code": "PBE", "name": "PILIBHIT JN", "state": "Uttar Pradesh", "zone": "NER"}, "geometry": {"type": "Point", "coordinates": [79.813946, 28.614977999999997]}}, {"id": "11", "type": "Feature", "properties": {"address": "Rewa, Madhya Pradesh", "code": "REWA", "name": "REWA", "state": "Madhya Pradesh", "zone": "WCR"}, "geometry": {"type": "Point", "coordinates": [81.250615, 24.537122]}}, {"id": "13", "type": "Feature", "properties": {"address": "Junction Point - Khajuraho, Uttar Pradesh", "code": "MBA", "name": "MAHOBA", "state": "Uttar Pradesh", "zone": "NCR"}, "geometry": {"type": "Point", "coordinates": [79.849079, 25.306914]}}, {"id": "14", "type": "Feature", "properties": {"address": "Dist. Amravati, Maharashtra", "code": "ELP", "name": "Achalpur", "state": "Maharashtra", "zone": "CR"}, "geometry": {"type": "Point", "coordinates": [77.51926277764142, 21.27760302246017]}}, {"id": "15", "type": "Feature", "properties": {"address": "Balgona, West Bengal", "code": "BGNA", "name": "Balgona", "state": "West Bengal", "zone": "ER"}, "geometry": {"type": "Point", "coordinates": [87.95045644976199, 23.458049719226736]}}, {"id": "16", "type": "Feature", "properties": {"address": "Nainpur, Madhya Pradesh", "code": "NIR", "name": "Nainpur Junction", "state": "Madhya Pradesh", "zone": "SECR"}, "geometry": {"type": "Point", "coordinates": [80.108853, 22.425676]}}, {"id": "17", "type": "Feature", "properties": {"address": "03564-255091, West Bengal", "code": "APDJ", "name": "ALIPUR DUAR JN", "state": "West Bengal", "zone": "NFR"}, "geometry": {"type": "Point", "coordinates": [89.534048, 26.523279]}}, {"id": "20", "type": "Feature", "properties": {"address": "Aurangabad, Maharashtra", "code": "AWB", "name": "AURANGABAD", "state": "Maharashtra", "zone": "SCR"}, "geometry": {"type": "Point", "coordinates": [75.31064599999999, 19.859276]}}, {"id": "21", "type": "Feature", "properties": {"address": "Somnath, Gujarat", "code": "SMNH", "name": "SOMNATH", "state": "Gujarat", "zone": "WR"}, "geometry": {"type": "Point", "coordinates": [70.408254, 20.896131999999998]}}, {"id": "22", "type": "Feature", "properties": {"address": "Cuddalore Township, Tamil Nadu", "code": "CUPJ", "name": "CUDDALORE PORT", "state": "Tamil Nadu", "zone": "SR"}, "geometry": {"type": "Point", "coordinates": [79.766287, 11.715119]}}, {"id": "24", "type": "Feature", "properties": {"address": "Porbandar, Gujarat", "code": "PBR", "name": "PORBANDAR", "state": "Gujarat", "zone": "WR"}, "geometry": {"type": "Point", "coordinates": [69.615506, 21.643597999999997]}}, {"id": "25", "type": "Feature", "properties": {"address": "Giridih, Jharkhand", "code": "GRD", "name": "Giridih", "state": "Jharkhand", "zone": "ER"}, "geometry": {"type": "Point", "coordinates": [86.3146452, 24.182255899999998]}}, {"id": "26", "type": "Feature", "properties": {"address": "Agartala, Tripura", "code": "AGTL", "name": "Agartala", "state": "Tripura", "zone": "NFR"}, "geometry": {"type": "Point", "coordinates": [91.278481, 23.792417]}}, {"id": "29", "type": "Feature", "properties": {"address": "National Highway 15, Rajasthan", "code": "SOG", "name": "SURATGARH JN", "state": "Rajasthan", "zone": "NWR"}, "geometry": {"type": "Point", "coordinates": [73.90724800000001, 29.324152]}}, {"id": "30", "type": "Feature", "properties": {"address": "Barmer, Rajasthan", "code": "MBF", "name": "Munabao", "state": "Rajasthan", "zone": "NWR"}, "geometry": {"type": "Point", "coordinates": [70.276543, 25.742614]}}, {"id": "38", "type": "Feature", "properties": {"address": "Chamarajnagar, Karnataka", "code": "CMNR", "name": "CHAMARAJANAGAR", "state": "Karnataka", "zone": "SWR"}, "geometry": {"type": "Point", "coordinates": [76.932807, 11.934891]}}, {"id": "39", "type": "Feature", "properties": {"address": "Dhubri, Assam", "code": "DBB", "name": "DHUBRI", "state": "Assam", "zone": "NFR"}, "geometry": {"type": "Point", "coordinates": [89.977952, 26.023137000000002]}}, {"id": "41", "type": "Feature", "properties": {"address": "Chaparmukh, Assam", "code": "CPK", "name": "CHAPARMUKH JN", "state": "Assam", "zone": "NFR"}, "geometry": {"type": "Point", "coordinates": [92.511718, 26.202272]}}, {"id": "42", "type": "Feature", "properties": {"address": "Chitradurga, Karnataka", "code": "CTA", "name": "Chitradurg", "state": "Karnataka", "zone": "SWR"}, "geometry": {"type": "Point", "coordinates": [76.386431, 14.231154]}}, {"id": "43", "type": "Feature", "properties": {"address": "Vadodara, Gujarat", "code": "CTD", "name": "Chhota Udepur", "state": "Gujarat", "zone": "WR"}, "geometry": {"type": "Point", "coordinates": [74.014286, 22.314788]}}, {"id": "46", "type": "Feature", "properties": {"address": "Churu, Rajasthan", "code": "CUR", "name": "Churu", "state": "Rajasthan", "zone": "NWR"}, "geometry": {"type": "Point", "coordinates": [74.966203, 28.288281]}}, {"id": "47", "type": "Feature", "properties": {"address": "Chhindwara, Madhya Pradesh", "code": "CWA", "name": "Chhindwara Junction", "state": "Madhya Pradesh", "zone": "SECR"}, "geometry": {"type": "Point", "coordinates": [78.953212, 22.058201]}}, {"id": "49", "type": "Feature", "properties": {"address": "Fazilka, Punjab", "code": "FKA", "name": "Fazilka", "state": "Punjab", "zone": "NR"}, "geometry": {"type": "Point", "coordinates": [74.02541699999999, 30.408641]}}, {"id": "52", "type": "Feature", "properties": {"address": "Darjeeling, West Bengal", "code": "DJ", "name": "Darjeeling", "state": "West Bengal", "zone": "NFR"}, "geometry": {"type": "Point", "coordinates": [88.263326, 27.038151]}}, {"id": "53", "type": "Feature", "properties": {"address": "06243-222853, Bihar", "code": "BGS", "name": "BEGU SARAI", "state": "Bihar", "zone": "ECR"}, "geometry": {"type": "Point", "coordinates": [86.134476, 25.425296]}}, {"id": "55", "type": "Feature", "properties": {"address": "Etah, Uttar Pradesh", "code": "ETAH", "name": "Etah", "state": "Uttar Pradesh", "zone": "NCR"}, "geometry": {"type": "Point", "coordinates": [78.65391899999999, 27.571173]}}, {"id": "56", "type": "Feature", "properties": {"address": "Ahmedabad, Gujarat", "code": "GG", "name": "GANDHIGRAM", "state": "Gujarat", "zone": "WR"}, "geometry": {"type": "Point", "coordinates": [72.568831, 23.02676]}}, {"id": "61", "type": "Feature", "properties": {"address": "Dhamtari, Chhattisgarh", "code": "DTR", "name": "Dhamtari", "state": "Chhattisgarh", "zone": "SECR"}, "geometry": {"type": "Point", "coordinates": [81.550321, 20.714515000000002]}}, {"id": "62", "type": "Feature", "properties": {"address": "Taki, West Bengal", "code": "HNB", "name": "Hasanabad", "state": "West Bengal", "zone": "ER"}, "geometry": {"type": "Point", "coordinates": [88.912953, 22.570155]}}, {"id": "65", "type": "Feature", "properties": {"address": "Harihar, Karnataka", "code": "HRR", "name": "HARIHAR", "state": "Karnataka", "zone": "SWR"}, "geometry": {"type": "Point", "coordinates": [75.812314, 14.515431]}}, {"id": "66", "type": "Feature", "properties": {"address": "Hanumangarh, Rajasthan", "code": "HMH", "name": "HANUMANGARH JN", "state": "Rajasthan", "zone": "NWR"}, "geometry": {"type": "Point", "coordinates": [74.297633, 29.614904]}}, {"id": "68", "type": "Feature", "properties": {"address": "Junagadh, Gujarat", "code": "JND", "name": "JUNAGADH JN", "state": "Gujarat", "zone": "WR"}, "geometry": {"type": "Point", "coordinates": [70.457612, 21.530606]}}, {"id": "69", "type": "Feature", "properties": {"address": "Dongar Parasia, Madhya Pradesh", "code": "JNO", "name": "Junnor Deo", "state": "Madhya Pradesh", "zone": "CR"}, "geometry": {"type": "Point", "coordinates": [78.592052, 22.191279]}}, {"id": "72", "type": "Feature", "properties": {"address": "Satna, Madhya Pradesh", "code": "STA", "name": "SATNA", "state": "Madhya Pradesh", "zone": "WCR"}, "geometry": {"type": "Point", "coordinates": [80.827717, 24.568619]}}, {"id": "73", "type": "Feature", "properties": {"address": "Ariyakudi Road, Tamil Nadu", "code": "KKDI", "name": "Karaikkudi Junction", "state": "Tamil Nadu", "zone": "SR"}, "geometry": {"type": "Point", "coordinates": [78.79331499999999, 10.068518]}}, {"id": "75", "type": "Feature", "properties": {"address": "Kalka, Haryana", "code": "KLK", "name": "Kalka", "state": "Haryana", "zone": "NR"}, "geometry": {"type": "Point", "coordinates": [76.931759, 30.837667]}}, {"id": "78", "type": "Feature", "properties": {"address": "Korba, Chhattisgarh", "code": "KRBA", "name": "Korba", "state": "Chhattisgarh", "zone": "SECR"}, "geometry": {"type": "Point", "coordinates": [82.71301299999999, 22.337584]}}, {"id": "80", "type": "Feature", "properties": {"address": "Kocha, Uttar Pradesh", "code": "KNH", "name": "Konch", "state": "Uttar Pradesh", "zone": "NCR"}, "geometry": {"type": "Point", "coordinates": [79.15770702, 25.99510551]}}, {"id": "85", "type": "Feature", "properties": {"address": "Surguja, Chhattisgarh", "code": "ABKP", "name": "AMBIKAPUR", "state": "Chhattisgarh", "zone": "SECR"}, "geometry": {"type": "Point", "coordinates": [83.14510899999999, 23.137032]}}, {"id": "86", "type": "Feature", "properties": {"address": "Matheran, Maharashtra", "code": "MAE", "name": "Matheran", "state": "Maharashtra", "zone": "CR"}, "geometry": {"type": "Point", "coordinates": [73.270911, 18.989244]}}, {"id": "89", "type": "Feature", "properties": {"address": "Nagaon, Assam", "code": "MBO", "name": "Mairabari", "state": "Assam", "zone": "NFR"}, "geometry": {"type": "Point", "coordinates": [92.421058, 26.450839000000002]}}, {"id": "90", "type": "Feature", "properties": {"address": "Abohar, Punjab", "code": "ABS", "name": "ABOHAR", "state": "Punjab", "zone": "NR"}, "geometry": {"type": "Point", "coordinates": [74.19568617739999, 30.1393834225]}}, {"id": "92", "type": "Feature", "properties": {"address": "Manihari Railway Station, Bihar", "code": "MHI", "name": "Manihari", "state": "Bihar", "zone": "NFR"}, "geometry": {"type": "Point", "coordinates": [87.6197250085, 25.343215469]}}, {"id": "93", "type": "Feature", "properties": {"address": "Maniknagar Bypass, Maharashtra", "code": "MRJ", "name": "MIRAJ JN", "state": "Maharashtra", "zone": "CR"}, "geometry": {"type": "Point", "coordinates": [74.638839, 16.819946]}}, {"id": "97", "type": "Feature", "properties": {"address": "Mayiladuthurai, Tamil Nadu", "code": "MV", "name": "MAYILADUTURAI JN", "state": "Tamil Nadu", "zone": "SR"}, "geometry": {"type": "Point", "coordinates": [79.62868, 11.095237000000001]}}, {"id": "102", "type": "Feature", "properties": {"address": "Murliganj, Bihar", "code": "MRIJ", "name": "Murliganj", "state": "Bihar", "zone": "ECR"}, "geometry": {"type": "Point", "coordinates": [87.000446, 25.888506]}}, {"id": "104", "type": "Feature", "properties": {"address": "Machilipatnam, Andhra Pradesh", "code": "MTM", "name": "Machilipatnam", "state": "Andhra Pradesh", "zone": "SCR"}, "geometry": {"type": "Point", "coordinates": [81.137763, 16.171258]}}, {"id": "106", "type": "Feature", "properties": {"address": "Bengaluru, Karnataka", "code": "SBC", "name": "BANGALORE CITY JN", "state": "Karnataka", "zone": "SWR"}, "geometry": {"type": "Point", "coordinates": [77.56808299999999, 12.977595]}}, {"id": "107", "type": "Feature", "properties": {"address": "Nilambur, Kerala", "code": "NIL", "name": "Nilambur Road", "state": "Kerala", "zone": "SR"}, "geometry": {"type": "Point", "coordinates": [76.254779, 11.278805]}}, {"id": "109", "type": "Feature", "properties": {"address": "Coonoor, Tamil Nadu", "code": "ONR", "name": "Coonoor", "state": "Tamil Nadu", "zone": "SR"}, "geometry": {"type": "Point", "coordinates": [76.791337, 11.343714]}}, {"id": "110", "type": "Feature", "properties": {"address": "Parli-Vaijnath, Maharashtra", "code": "PRLI", "name": "PARLI VAIJNATH", "state": "Maharashtra", "zone": "SCR"}, "geometry": {"type": "Point", "coordinates": [76.524424, 18.853005]}}, {"id": "111", "type": "Feature", "properties": {"address": "Palia Kalan, Uttar Pradesh", "code": "PLK", "name": "PALIA KALAN", "state": "Uttar Pradesh", "zone": "NER"}, "geometry": {"type": "Point", "coordinates": [80.582392, 28.426644]}}, {"id": "113", "type": "Feature", "properties": {"address": "Punalur, Tamil Nadu", "code": "PUU", "name": "Punalur", "state": "Tamil Nadu", "zone": "SR"}, "geometry": {"type": "Point", "coordinates": [76.916104, 9.023336]}}, {"id": "114", "type": "Feature", "properties": {"address": "Vadodara, Gujarat", "code": "PRTN", "name": "Pratapnagar", "state": "Gujarat", "zone": "WR"}, "geometry": {"type": "Point", "coordinates": [73.210289, 22.281143]}}, {"id": "115", "type": "Feature", "properties": {"address": "Ratangarh, Rajasthan", "code": "RTGH", "name": "Ratangarh Junction", "state": "Rajasthan", "zone": "NWR"}, "geometry": {"type": "Point", "coordinates": [74.6236025668, 28.0665867073]}}, {"id": "118", "type": "Feature", "properties": {"address": "Ranaghat, West Bengal", "code": "RHA", "name": "Ranaghat Junction", "state": "West Bengal", "zone": "ER"}, "geometry": {"type": "Point", "coordinates": [88.568184, 23.173344]}}, {"id": "123", "type": "Feature", "properties": {"address": "Alwar, Rajasthan", "code": "AWR", "name": "ALWAR", "state": "Rajasthan", "zone": "NWR"}, "geometry": {"type": "Point", "coordinates": [76.62126500000001, 27.559273]}}, {"id": "124", "type": "Feature", "properties": {"address": "Ramtek, Maharashtra", "code": "RTK", "name": "Ramtek", "state": "Maharashtra", "zone": "SECR"}, "geometry": {"type": "Point", "coordinates": [79.326499, 21.400715]}}, {"id": "125", "type": "Feature", "properties": {"address": "Nawapara Nagar, Chhattisgarh", "code": "RIM", "name": "Rajim", "state": "Chhattisgarh", "zone": "SECR"}, "geometry": {"type": "Point", "coordinates": [81.867426, 20.969475]}}, {"id": "128", "type": "Feature", "properties": {"address": "Nettana Railway Station, Karnataka", "code": "SBHR", "name": "Subrahmanya Road", "state": "Karnataka", "zone": "SWR"}, "geometry": {"type": "Point", "coordinates": [75.5576150342, 12.7312724613]}}, {"id": "129", "type": "Feature", "properties": {"address": "03842-263094, Assam", "code": "SCL", "name": "SILCHAR", "state": "Assam", "zone": "NFR"}, "geometry": {"type": "Point", "coordinates": [92.786795, 24.830337999999998]}}, {"id": "130", "type": "Feature", "properties": {"address": "Howrah/Kolkata, West Bengal", "code": "SHM", "name": "KOLKATA SHALIMAR", "state": "West Bengal", "zone": "SER"}, "geometry": {"type": "Point", "coordinates": [88.315615, 22.555508]}}, {"id": "132", "type": "Feature", "properties": {"address": "Singrauli, Madhya Pradesh", "code": "SGRL", "name": "SINGRAULI", "state": "Madhya Pradesh", "zone": "ECR"}, "geometry": {"type": "Point", "coordinates": [82.642735, 24.204257000000002]}}, {"id": "133", "type": "Feature", "properties": {"address": "Karimganj Town, Assam", "code": "KXJ", "name": "Karimganj Junction", "state": "Assam", "zone": "NFR"}, "geometry": {"type": "Point", "coordinates": [92.373769, 24.860717]}}, {"id": "139", "type": "Feature", "properties": {"address": "Mumbai, Maharashtra", "code": "CSTM", "name": "MUMBAI CST", "state": "Maharashtra", "zone": "CR"}, "geometry": {"type": "Point", "coordinates": [72.836903, 18.944481]}}, {"id": "142", "type": "Feature", "properties": {"address": "Madgaon. Ph:- 0832-2712790., Goa", "code": "MAO", "name": "MADGAON", "state": "Goa", "zone": "KR"}, "geometry": {"type": "Point", "coordinates": [73.97072399999999, 15.267911000000002]}}, {"id": "144", "type": "Feature", "properties": {"address": "Udaipur, Rajasthan", "code": "UDZ", "name": "UDAIPUR CITY", "state": "Rajasthan", "zone": "NWR"}, "geometry": {"type": "Point", "coordinates": [73.699632, 24.566862]}}, {"id": "146", "type": "Feature", "properties": {"address": "Railway road, Jammu and Kashmir", "code": "UHP", "name": "UDHAMPUR", "state": "Jammu and Kashmir", "zone": "NR"}, "geometry": {"type": "Point", "coordinates": [75.154881, 32.92664]}}, {"id": "149", "type": "Feature", "properties": {"address": "Vellore-632001, Tamil Nadu", "code": "VLR", "name": "VELLORE CANT", "state": "Tamil Nadu", "zone": "SR"}, "geometry": {"type": "Point", "coordinates": [79.127493, 12.910718]}}, {"id": "153", "type": "Feature", "properties": {"address": "Allahabad(0532-1072), Uttar Pradesh", "code": "ALY", "name": "ALLAHABAD CITY", "state": "Uttar Pradesh", "zone": "NER"}, "geometry": {"type": "Point", "coordinates": [81.829736, 25.442410000000002]}}, {"id": "155", "type": "Feature", "properties": {"address": "Unchahar, Uttar Pradesh", "code": "UCR", "name": "Unchahar Junction", "state": "Uttar Pradesh", "zone": "NR"}, "geometry": {"type": "Point", "coordinates": [81.30014299999999, 25.902315]}}, {"id": "157", "type": "Feature", "properties": {"address": "Vadtal, Gujarat", "code": "VTL", "name": "Vadtal Swaminarayan", "state": "Gujarat", "zone": "WR"}, "geometry": {"type": "Point", "coordinates": [72.876748, 22.591636]}}, {"id": "158", "type": "Feature", "properties": {"address": "Atari, Punjab", "code": "ATT", "name": "ATARI", "state": "Punjab", "zone": "NR"}, "geometry": {"type": "Point", "coordinates": [74.607241, 31.594934000000002]}}, {"id": "159", "type": "Feature", "properties": {"address": "Dabhoi, Gujarat", "code": "DB", "name": "Dabhoi Junction", "state": "Gujarat", "zone": "WR"}, "geometry": {"type": "Point", "coordinates": [73.415466, 22.137755]}}, {"id": "160", "type": "Feature", "properties": {"address": "Bari, Rajasthan", "code": "BARI", "name": "Bari", "state": "Rajasthan", "zone": "NCR"}, "geometry": {"type": "Point", "coordinates": [77.61817468, 26.65005846]}}, {"id": "162", "type": "Feature", "properties": {"address": "Pharenda, Uttar Pradesh", "code": "ANDN", "name": "Anand Nagar", "state": "Uttar Pradesh", "zone": "NER"}, "geometry": {"type": "Point", "coordinates": [83.270698, 27.103714]}}, {"id": "163", "type": "Feature", "properties": {"address": "Borsad, Gujarat", "code": "BDRN", "name": "Bhadran", "state": "Gujarat", "zone": "WR"}, "geometry": null}, {"id": "165", "type": "Feature", "properties": {"address": "Banka, Bihar", "code": "BAKA", "name": "Banka", "state": "Bihar", "zone": "?"}, "geometry": {"type": "Point", "coordinates": [86.91169348999999, 24.8659010332]}}, {"id": "168", "type": "Feature", "properties": {"address": "Kiriburu, Odisha", "code": "BBN", "name": "Barbil", "state": "Odisha", "zone": "SER"}, "geometry": {"type": "Point", "coordinates": [85.36905800000001, 22.104577]}}, {"id": "171", "type": "Feature", "properties": {"address": "Barhaj, Uttar Pradesh", "code": "BHJ", "name": "Barhaj Bazar", "state": "Uttar Pradesh", "zone": "NER"}, "geometry": {"type": "Point", "coordinates": [83.731497, 26.283912]}}, {"id": "172", "type": "Feature", "properties": {"address": "Dahanu, Maharashtra", "code": "DRD", "name": "DAHANU ROAD", "state": "Maharashtra", "zone": "WR"}, "geometry": {"type": "Point", "coordinates": [72.74336799999999, 19.991217]}}, {"id": "173", "type": "Feature", "properties": {"address": "Beawar, Rajasthan", "code": "BER", "name": "BEAWAR", "state": "Rajasthan", "zone": "NWR"}, "geometry": {"type": "Point", "coordinates": [74.3149711, 26.1089078]}}, {"id": "174", "type": "Feature", "properties": {"address": "Kolkata, West Bengal", "code": "BGB", "name": "Budge Budge", "state": "West Bengal", "zone": "ER"}, "geometry": {"type": "Point", "coordinates": [88.19469228000001, 22.49310248]}}, {"id": "176", "type": "Feature", "properties": {"address": "WestChamparan, Bihar", "code": "BKF", "name": "Bhikhna Thori", "state": "Bihar", "zone": "ECR"}, "geometry": {"type": "Point", "coordinates": [84.61057, 27.333596]}}, {"id": "177", "type": "Feature", "properties": {"address": "Kolasib, Mizoram", "code": "BHRB", "name": "Bhairabi", "state": "Mizoram", "zone": "?"}, "geometry": {"type": "Point", "coordinates": [92.54106045, 24.19545969]}}, {"id": "179", "type": "Feature", "properties": {"address": "Belgaum, Karnataka", "code": "BGM", "name": "BELGAUM", "state": "Karnataka", "zone": "SWR"}, "geometry": {"type": "Point", "coordinates": [74.5095639, 15.8492433]}}, {"id": "180", "type": "Feature", "properties": {"address": "Barahwa Pool Rd, Bihar", "code": "BGU", "name": "BAIRGANIA", "state": "Bihar", "zone": "ECR"}, "geometry": {"type": "Point", "coordinates": [85.27333399999999, 26.738281999999998]}}, {"id": "181", "type": "Feature", "properties": {"address": "Bijapur, Karnataka", "code": "BJP", "name": "BIJAPUR", "state": "Karnataka", "zone": "SWR"}, "geometry": {"type": "Point", "coordinates": [75.7400012, 16.8310603]}}, {"id": "182", "type": "Feature", "properties": {"address": "Vadodara, Gujarat", "code": "BDE", "name": "Bodeli", "state": "Gujarat", "zone": "WR"}, "geometry": {"type": "Point", "coordinates": [73.71657979999999, 22.2701906]}}, {"id": "184", "type": "Feature", "properties": {"address": "Barmer, Rajasthan", "code": "BME", "name": "BARMER", "state": "Rajasthan", "zone": "NWR"}, "geometry": {"type": "Point", "coordinates": [71.397067, 25.744521900000002]}}, {"id": "185", "type": "Feature", "properties": {"address": "Bhildi, Gujarat", "code": "BLDI", "name": "BHILDI", "state": "Gujarat", "zone": "WR"}, "geometry": {"type": "Point", "coordinates": [72.008187, 24.194251]}}, {"id": "187", "type": "Feature", "properties": {"address": "Valsad, Gujarat", "code": "BL", "name": "VALSAD", "state": "Gujarat", "zone": "WR"}, "geometry": {"type": "Point", "coordinates": [72.9335291, 20.6085595]}}, {"id": "188", "type": "Feature", "properties": {"address": "Sri Ganganagar, Rajasthan", "code": "APH", "name": "ANUPGARH", "state": "Rajasthan", "zone": "NWR"}, "geometry": {"type": "Point", "coordinates": [73.2045643, 29.1968977]}}, {"id": "189", "type": "Feature", "properties": {"address": "National Highway 6, Orissa", "code": "BMPR", "name": "Badampahar", "state": "Orissa", "zone": "SER"}, "geometry": {"type": "Point", "coordinates": [86.18081819999999, 22.2640234]}}, {"id": "191", "type": "Feature", "properties": {"address": "Jairampur More to Baliapur, Jharkhand", "code": "BJE", "name": "Bhojudih Junction", "state": "Jharkhand", "zone": "SER"}, "geometry": {"type": "Point", "coordinates": [86.4469993, 23.642174999999998]}}, {"id": "192", "type": "Feature", "properties": {"address": "Bareilly, Uttar Pradesh", "code": "BRY", "name": "BAREILLY", "state": "Uttar Pradesh", "zone": "NER"}, "geometry": {"type": "Point", "coordinates": [79.4109744, 28.3372843]}}, {"id": "193", "type": "Feature", "properties": {"address": "Bhanvad, Gujarat", "code": "BNVD", "name": "BHANVAD", "state": "Gujarat", "zone": "WR"}, "geometry": {"type": "Point", "coordinates": [69.79885780000001, 21.9330444]}}, {"id": "196", "type": "Feature", "properties": {"address": "Baripada, Orissa", "code": "BPO", "name": "Baripada", "state": "Orissa", "zone": "SER"}, "geometry": {"type": "Point", "coordinates": [86.73709000000001, 21.9227408]}}, {"id": "200", "type": "Feature", "properties": {"address": "Bankura, West Bengal", "code": "BQA", "name": "BANKURA", "state": "West Bengal", "zone": "SER"}, "geometry": {"type": "Point", "coordinates": [87.07468750000001, 23.224387099999998]}}, {"id": "201", "type": "Feature", "properties": {"address": "Purnia, Bihar", "code": "BNKI", "name": "Banmankhi Junction", "state": "Bihar", "zone": "ECR"}, "geometry": {"type": "Point", "coordinates": [87.193664, 25.885092]}}, {"id": "202", "type": "Feature", "properties": {"address": "Bulandshahr, Uttar Pradesh", "code": "BSC", "name": "Bulandshahr", "state": "Uttar Pradesh", "zone": "NR"}, "geometry": {"type": "Point", "coordinates": [77.8482415, 28.3919187]}}, {"id": "203", "type": "Feature", "properties": {"address": "Botad, Gujarat", "code": "BTD", "name": "BOTAD JN", "state": "Gujarat", "zone": "WR"}, "geometry": {"type": "Point", "coordinates": [71.6655966, 22.182870599999998]}}, {"id": "206", "type": "Feature", "properties": {"address": "Deoghar, Jharkhand", "code": "BDME", "name": "Baidyanathdham Deoghar", "state": "Jharkhand", "zone": "ER"}, "geometry": {"type": "Point", "coordinates": [86.6920701, 24.4892623]}}, {"id": "207", "type": "Feature", "properties": {"address": "State Highway 160, Gujarat", "code": "CDD", "name": "Chandod", "state": "Gujarat", "zone": "WR"}, "geometry": {"type": "Point", "coordinates": [73.45218163914979, 21.99195697308774]}}, {"id": "208", "type": "Feature", "properties": {"address": "Kurigram Nageshwari Rd, West Bengal", "code": "BXT", "name": "Bamanhat", "state": "West Bengal", "zone": "NFR"}, "geometry": {"type": "Point", "coordinates": [89.62797752581537, 26.076284459879247]}}, {"id": "210", "type": "Feature", "properties": {"address": "Kishanganj, Bihar", "code": "BHGJ", "name": "Bihariganj", "state": "Bihar", "zone": "ECR"}, "geometry": {"type": "Point", "coordinates": [86.992655, 25.732598999999997]}}, {"id": "212", "type": "Feature", "properties": {"address": "Canning, West Bengal", "code": "CG", "name": "Canning", "state": "West Bengal", "zone": "ER"}, "geometry": {"type": "Point", "coordinates": [88.667458, 22.313264]}}, {"id": "213", "type": "Feature", "properties": {"address": "Chandausi, Uttar Pradesh", "code": "CH", "name": "CHANDAUSI JN", "state": "Uttar Pradesh", "zone": "NR"}, "geometry": {"type": "Point", "coordinates": [78.780268, 28.458626000000002]}}, {"id": "214", "type": "Feature", "properties": {"address": "Dehradun, Uttarakhand", "code": "DDN", "name": "DEHRADUN", "state": "Uttarakhand", "zone": "NR"}, "geometry": {"type": "Point", "coordinates": [78.0336011, 30.3140377]}}, {"id": "216", "type": "Feature", "properties": {"address": "Darua, Chandigarh", "code": "CDG", "name": "CHANDIGARH", "state": "Chandigarh", "zone": "NR"}, "geometry": {"type": "Point", "coordinates": [76.82208, 30.7019773]}}, {"id": "223", "type": "Feature", "properties": {"address": "Shyama Prasad Mukherji Marg, Delhi NCT", "code": "DLI", "name": "OLD DELHI", "state": "Delhi NCT", "zone": "NR"}, "geometry": {"type": "Point", "coordinates": [77.228356, 28.661815999999998]}}, {"id": "224", "type": "Feature", "properties": {"address": "Kasaragod district, Kerala", "code": "CHV", "name": "CHARVATTUR", "state": "Kerala", "zone": "SR"}, "geometry": {"type": "Point", "coordinates": [75.15435, 12.213321]}}, {"id": "227", "type": "Feature", "properties": {"address": "Darjeeling, West Bengal", "code": "DJRZ", "name": "To Darjeeling", "state": "West Bengal", "zone": "NFR"}, "geometry": {"type": "Point", "coordinates": [88.3332302, 26.8521353]}}, {"id": "228", "type": "Feature", "properties": {"address": "Dharmanagar, Tripura", "code": "DMR", "name": "Dharmanagar", "state": "Tripura", "zone": "NFR"}, "geometry": {"type": "Point", "coordinates": [92.16824700000001, 24.366946]}}, {"id": "229", "type": "Feature", "properties": {"address": "Anipur Nivia Rd, Assam", "code": "DLCR", "name": "Dullabcherra", "state": "Assam", "zone": "NFR"}, "geometry": {"type": "Point", "coordinates": [92.477671, 24.505297000000002]}}, {"id": "230", "type": "Feature", "properties": {"address": "Dhule, Maharashtra", "code": "DHI", "name": "Dhule", "state": "Maharashtra", "zone": "CR"}, "geometry": {"type": "Point", "coordinates": [74.768847, 20.887752]}}, {"id": "231", "type": "Feature", "properties": {"address": "Madhepura, Bihar", "code": "DMH", "name": "Dauram Madhepura", "state": "Bihar", "zone": "ECR"}, "geometry": {"type": "Point", "coordinates": [86.782638, 25.908513]}}, {"id": "233", "type": "Feature", "properties": {"address": "Dimapur, Nagaland", "code": "DMV", "name": "DIMAPUR", "state": "Nagaland", "zone": "NFR"}, "geometry": {"type": "Point", "coordinates": [93.72781599999999, 25.905701999999998]}}, {"id": "235", "type": "Feature", "properties": {"address": "Dumka, Jharkhand", "code": "DUMK", "name": "Dumka", "state": "Jharkhand", "zone": "ER"}, "geometry": {"type": "Point", "coordinates": [87.254975, 24.289527]}}, {"id": "236", "type": "Feature", "properties": {"address": "Dhuri, Punjab", "code": "DUI", "name": "DHURI JN", "state": "Punjab", "zone": "NR"}, "geometry": {"type": "Point", "coordinates": [75.86660300000001, 30.372740999999998]}}, {"id": "237", "type": "Feature", "properties": {"address": "Gurgaon, Haryana", "code": "FN", "name": "Farukhnagar", "state": "Haryana", "zone": "NR"}, "geometry": {"type": "Point", "coordinates": [76.828486, 28.467066]}}, {"id": "238", "type": "Feature", "properties": {"address": "Indore, Madhya Pradesh", "code": "FTD", "name": "Fatehabad Chowk Junction", "state": "Madhya Pradesh", "zone": "WR"}, "geometry": {"type": "Point", "coordinates": [75.673338, 23.009106]}}, {"id": "239", "type": "Feature", "properties": {"address": "Tirumalpur, Tamil Nadu", "code": "TMLP", "name": "TIRUMALPUR", "state": "Tamil Nadu", "zone": "SR"}, "geometry": {"type": "Point", "coordinates": [79.67348799999999, 12.956333]}}, {"id": "240", "type": "Feature", "properties": {"address": "Dibrugarh, Assam", "code": "DBRG", "name": "DIBRUGARH", "state": "Assam", "zone": "NFR"}, "geometry": {"type": "Point", "coordinates": [94.93525791020001, 27.463606565899997]}}, {"id": "241", "type": "Feature", "properties": {"address": "Jammu Cantt, Jammu and Kashmir", "code": "JAT", "name": "JAMMU TAWI", "state": "Jammu and Kashmir", "zone": "NR"}, "geometry": {"type": "Point", "coordinates": [74.880117, 32.706975]}}, {"id": "244", "type": "Feature", "properties": {"address": "Thoothukudi, Tamil Nadu", "code": "TN", "name": "TUTICORIN", "state": "Tamil Nadu", "zone": "SR"}, "geometry": {"type": "Point", "coordinates": [78.15535899999999, 8.806109000000001]}}, {"id": "245", "type": "Feature", "properties": {"address": "Medinipur, West Bengal", "code": "GBA", "name": "GARHBETA", "state": "West Bengal", "zone": "SER"}, "geometry": {"type": "Point", "coordinates": [87.320972, 22.844562]}}, {"id": "247", "type": "Feature", "properties": {"address": "Krishna District, Andhra Pradesh", "code": "GDV", "name": "GUDIVADA JN", "state": "Andhra Pradesh", "zone": "SCR"}, "geometry": {"type": "Point", "coordinates": [80.987594, 16.429888]}}, {"id": "249", "type": "Feature", "properties": {"address": "R 748, West Bengal", "code": "GEDE", "name": "Gede", "state": "West Bengal", "zone": "ER"}, "geometry": {"type": "Point", "coordinates": [88.786737, 23.491197]}}, {"id": "250", "type": "Feature", "properties": {"address": "Guruvayoor 0487-2556820, Kerala", "code": "GUV", "name": "GURUVAYUR", "state": "Kerala", "zone": "SR"}, "geometry": {"type": "Point", "coordinates": [76.045457, 10.596896]}}, {"id": "251", "type": "Feature", "properties": {"address": "Calicut, Kerala", "code": "CLT", "name": "KOZHIKODE", "state": "Kerala", "zone": "SR"}, "geometry": {"type": "Point", "coordinates": [75.780407, 11.246234]}}, {"id": "252", "type": "Feature", "properties": {"address": "Gandhinagar, Gujarat", "code": "GNC", "name": "Gandhinagar Capital", "state": "Gujarat", "zone": "WR"}, "geometry": {"type": "Point", "coordinates": [72.62916200000001, 23.233379]}}, {"id": "253", "type": "Feature", "properties": {"address": "Kiriburu, Jharkhand", "code": "GUA", "name": "Gua", "state": "Jharkhand", "zone": "SER"}, "geometry": {"type": "Point", "coordinates": [85.381896, 22.218519]}}, {"id": "254", "type": "Feature", "properties": {"address": "Gunupur, Orissa", "code": "GNPR", "name": "Gunupur", "state": "Orissa", "zone": "ECoR"}, "geometry": {"type": "Point", "coordinates": [83.8099599005, 19.069058897799998]}}, {"id": "255", "type": "Feature", "properties": {"address": "Jamnagar, Gujarat", "code": "HAPA", "name": "HAPA", "state": "Gujarat", "zone": "WR"}, "geometry": {"type": "Point", "coordinates": [70.11814, 22.468974]}}, {"id": "256", "type": "Feature", "properties": {"address": "Hospet, Karnataka", "code": "HPT", "name": "HOSPET JN", "state": "Karnataka", "zone": "SWR"}, "geometry": {"type": "Point", "coordinates": [76.38578, 15.286807]}}, {"id": "257", "type": "Feature", "properties": {"address": "Sutahata, West Bengal", "code": "HLZ", "name": "Haldia", "state": "West Bengal", "zone": "SER"}, "geometry": {"type": "Point", "coordinates": [88.06589, 22.045284]}}, {"id": "258", "type": "Feature", "properties": {"address": "Ajmer, Rajasthan", "code": "AII", "name": "AJMER JN", "state": "Rajasthan", "zone": "NWR"}, "geometry": {"type": "Point", "coordinates": [74.63746400000001, 26.456612]}}, {"id": "259", "type": "Feature", "properties": {"address": "Hathras(05722-242803), Uttar Pradesh", "code": "HRF", "name": "Hathras Kila", "state": "Uttar Pradesh", "zone": "NCR"}, "geometry": {"type": "Point", "coordinates": [78.05801798589528, 27.594876304064115]}}, {"id": "260", "type": "Feature", "properties": {"address": "Hisar, Haryana", "code": "HSR", "name": "Hisar", "state": "Haryana", "zone": "NWR"}, "geometry": {"type": "Point", "coordinates": [75.724305, 29.152341]}}, {"id": "261", "type": "Feature", "properties": {"address": "Hyderabad, Andhra Pradesh", "code": "HYB", "name": "HYDERABAD DECCAN", "state": "Andhra Pradesh", "zone": "SCR"}, "geometry": {"type": "Point", "coordinates": [78.467377, 17.393362999999997]}}, {"id": "262", "type": "Feature", "properties": {"address": "Himatnagar, Gujarat", "code": "HMT", "name": "HIMMATNAGAR", "state": "Gujarat", "zone": "WR"}, "geometry": {"type": "Point", "coordinates": [72.960358, 23.591655]}}, {"id": "263", "type": "Feature", "properties": {"address": "Jamnagar, Gujarat", "code": "JAM", "name": "JAMNAGAR", "state": "Gujarat", "zone": "WR"}, "geometry": {"type": "Point", "coordinates": [70.053879, 22.493992]}}, {"id": "264", "type": "Feature", "properties": {"address": "Haridwar, Uttarakhand", "code": "HW", "name": "HARIDWAR JN", "state": "Uttarakhand", "zone": "NR"}, "geometry": {"type": "Point", "coordinates": [78.15489899999999, 29.947787]}}, {"id": "265", "type": "Feature", "properties": {"address": "Indore, Madhya Pradesh", "code": "INDM", "name": "Indore Junction MG", "state": "Madhya Pradesh", "zone": "WR"}, "geometry": {"type": "Point", "coordinates": [75.868072, 22.717139]}}, {"id": "266", "type": "Feature", "properties": {"address": "Jabalpur, Madhya Pradesh", "code": "JBP", "name": "JABALPUR", "state": "Madhya Pradesh", "zone": "WCR"}, "geometry": {"type": "Point", "coordinates": [79.950919, 23.164636]}}, {"id": "267", "type": "Feature", "properties": {"address": "Rd, Assam", "code": "JRBM", "name": "JIRIBAM", "state": "Assam", "zone": "NFR"}, "geometry": {"type": "Point", "coordinates": [93.12437581, 24.79884918]}}, {"id": "268", "type": "Feature", "properties": {"address": "Joginder Nagar, Himachal Pradesh", "code": "JDNX", "name": "JOGINDER NAGAR", "state": "Himachal Pradesh", "zone": "NR"}, "geometry": {"type": "Point", "coordinates": [76.788887, 31.988433]}}, {"id": "269", "type": "Feature", "properties": {"address": "Jamner, Maharashtra", "code": "JMNR", "name": "Jamner", "state": "Maharashtra", "zone": "CR"}, "geometry": {"type": "Point", "coordinates": [75.77482301741838, 20.80642760713478]}}, {"id": "270", "type": "Feature", "properties": {"address": "Bharuch Jambusar, Gujarat", "code": "JMB", "name": "Jambusar Junction", "state": "Gujarat", "zone": "WR"}, "geometry": null}, {"id": "271", "type": "Feature", "properties": {"address": "Jorhat, Assam", "code": "JTTN", "name": "Jorhat Town", "state": "Assam", "zone": "NFR"}, "geometry": {"type": "Point", "coordinates": [94.217106, 26.750692]}}, {"id": "272", "type": "Feature", "properties": {"address": "Jaisalmer, Rajasthan", "code": "JSM", "name": "JAISALMER", "state": "Rajasthan", "zone": "NWR"}, "geometry": {"type": "Point", "coordinates": [70.92823899999999, 26.91655]}}, {"id": "273", "type": "Feature", "properties": {"address": "Rajkot, Gujarat", "code": "JLR", "name": "JETALSAR JN", "state": "Gujarat", "zone": "WR"}, "geometry": {"type": "Point", "coordinates": [70.57391, 21.729374]}}, {"id": "274", "type": "Feature", "properties": {"address": "Bharuch, Gujarat", "code": "KAVI", "name": "Kavi", "state": "Gujarat", "zone": "WR"}, "geometry": {"type": "Point", "coordinates": [88.39808402583003, 22.47229104660886]}}, {"id": "275", "type": "Feature", "properties": {"address": "Kathgodam, Uttarakhand", "code": "KGM", "name": "KATHGODAM", "state": "Uttarakhand", "zone": "NER"}, "geometry": {"type": "Point", "coordinates": [79.54633, 29.266583]}}, {"id": "276", "type": "Feature", "properties": {"address": "Khedbrahma, Gujarat", "code": "KDBM", "name": "Khed Brahma", "state": "Gujarat", "zone": "WR"}, "geometry": {"type": "Point", "coordinates": [73.041259, 24.029405999999998]}}, {"id": "277", "type": "Feature", "properties": {"address": "Kamareddi, Andhra Pradesh", "code": "KMC", "name": "KAMAREDDI", "state": "Andhra Pradesh", "zone": "SCR"}, "geometry": {"type": "Point", "coordinates": [78.335858, 18.32586]}}, {"id": "278", "type": "Feature", "properties": {"address": "Kashipur, Uttarakhand", "code": "KPV", "name": "KASHIPUR", "state": "Uttarakhand", "zone": "NER"}, "geometry": {"type": "Point", "coordinates": [78.96071, 29.204978]}}, {"id": "279", "type": "Feature", "properties": {"address": "Kodinar, Gujarat", "code": "KODR", "name": "Kodinar", "state": "Gujarat", "zone": "WR"}, "geometry": {"type": "Point", "coordinates": [70.695807, 20.797371000000002]}}, {"id": "280", "type": "Feature", "properties": {"address": "Thane, Maharashtra", "code": "VR", "name": "VIRAR", "state": "Maharashtra", "zone": "WR"}, "geometry": {"type": "Point", "coordinates": [72.811737, 19.454407]}}, {"id": "281", "type": "Feature", "properties": {"address": "Katwa, West Bengal", "code": "KWF", "name": "Katwa", "state": "West Bengal", "zone": "ER"}, "geometry": {"type": "Point", "coordinates": [88.123575, 23.639805]}}, {"id": "282", "type": "Feature", "properties": {"address": "Bhadran, Gujarat", "code": "KTNA", "name": "Kathana", "state": "Gujarat", "zone": "WR"}, "geometry": {"type": "Point", "coordinates": [72.752631, 22.235720999999998]}}, {"id": "283", "type": "Feature", "properties": {"address": "Lakho, Bihar", "code": "LAK", "name": "LAKHO", "state": "Bihar", "zone": "ECR"}, "geometry": {"type": "Point", "coordinates": [86.205004, 25.416359999999997]}}, {"id": "284", "type": "Feature", "properties": {"address": "Haflong, Assam", "code": "LFG", "name": "Lower Haflong", "state": "Assam", "zone": "NFR"}, "geometry": null}, {"id": "285", "type": "Feature", "properties": {"address": "Lalkuan, Uttarakhand", "code": "LKKA", "name": "Lal Kuan", "state": "Uttarakhand", "zone": "NER"}, "geometry": null}, {"id": "286", "type": "Feature", "properties": {"address": "Kalyani, West Bengal", "code": "KYI", "name": "Kalyani", "state": "West Bengal", "zone": "ER"}, "geometry": {"type": "Point", "coordinates": [88.467499, 22.969219]}}, {"id": "287", "type": "Feature", "properties": {"address": "Ledo, Assam", "code": "LEDO", "name": "Ledo", "state": "Assam", "zone": "NFR"}, "geometry": {"type": "Point", "coordinates": [95.725374, 27.288435]}}, {"id": "288", "type": "Feature", "properties": {"address": "Lalgola, West Bengal", "code": "LGL", "name": "Lalgola", "state": "West Bengal", "zone": "ER"}, "geometry": {"type": "Point", "coordinates": [88.257513, 24.421152]}}, {"id": "289", "type": "Feature", "properties": {"address": "Lajpat Nagar, Delhi NCT", "code": "LPNR", "name": "LAJPAT NAGAR", "state": "Delhi NCT", "zone": "NR"}, "geometry": {"type": "Point", "coordinates": [77.244136, 28.57927]}}, {"id": "290", "type": "Feature", "properties": {"address": "Mandla Fort, Madhya Pradesh", "code": "MFR", "name": "Mandla Fort", "state": "Madhya Pradesh", "zone": "SECR"}, "geometry": {"type": "Point", "coordinates": [80.355908, 22.586017]}}, {"id": "291", "type": "Feature", "properties": {"address": "Mangalore, Karnataka", "code": "MAJN", "name": "MANGALORE JN", "state": "Karnataka", "zone": "SR"}, "geometry": {"type": "Point", "coordinates": [74.88006, 12.866193]}}, {"id": "292", "type": "Feature", "properties": {"address": "Mandar, Bihar", "code": "MDLE", "name": "Mandar Hill", "state": "Bihar", "zone": "ER"}, "geometry": {"type": "Point", "coordinates": [87.02615830570001, 24.8060780645]}}, {"id": "293", "type": "Feature", "properties": {"address": "Manendragarh, Madhya Pradesh", "code": "MDGR", "name": "Manendragarh", "state": "Madhya Pradesh", "zone": "SECR"}, "geometry": {"type": "Point", "coordinates": [82.197734, 23.219746999999998]}}, {"id": "294", "type": "Feature", "properties": {"address": "Mhow, Madhya Pradesh", "code": "MHOW", "name": "Mhow", "state": "Madhya Pradesh", "zone": "WR"}, "geometry": {"type": "Point", "coordinates": [75.771097, 22.55518]}}, {"id": "295", "type": "Feature", "properties": {"address": "Sinor, Gujarat", "code": "MLSR", "name": "Malsar", "state": "Gujarat", "zone": "WR"}, "geometry": {"type": "Point", "coordinates": [73.31641039811075, 21.88940753391553]}}, {"id": "296", "type": "Feature", "properties": {"address": "Manikpur, Uttar Pradesh", "code": "MKP", "name": "MANIKPUR JN", "state": "Uttar Pradesh", "zone": "NCR"}, "geometry": {"type": "Point", "coordinates": [81.09365700000001, 25.063492]}}, {"id": "297", "type": "Feature", "properties": {"address": "Motihari, Bihar", "code": "MKI", "name": "BAPUDHAM MOTIHARI", "state": "Bihar", "zone": "ECR"}, "geometry": {"type": "Point", "coordinates": [84.90525, 26.655520000000003]}}, {"id": "298", "type": "Feature", "properties": {"address": "Lakhimpur Kheri, Uttar Pradesh", "code": "MLN", "name": "MAILANI", "state": "Uttar Pradesh", "zone": "NER"}, "geometry": {"type": "Point", "coordinates": [80.347318, 28.284349000000002]}}, {"id": "299", "type": "Feature", "properties": {"address": "Mavli, Rajasthan", "code": "MVJ", "name": "MAVLI JN", "state": "Rajasthan", "zone": "NWR"}, "geometry": {"type": "Point", "coordinates": [73.973721, 24.794585]}}, {"id": "300", "type": "Feature", "properties": {"address": "Meerut, Uttar Pradesh", "code": "MUT", "name": "MEERUT CANT", "state": "Uttar Pradesh", "zone": "NR"}, "geometry": {"type": "Point", "coordinates": [77.686937, 29.015997000000002]}}, {"id": "301", "type": "Feature", "properties": {"address": "Meerut, Uttar Pradesh", "code": "MTC", "name": "MEERUT CITY", "state": "Uttar Pradesh", "zone": "NR"}, "geometry": {"type": "Point", "coordinates": [77.675106, 28.977610000000002]}}, {"id": "302", "type": "Feature", "properties": {"address": "Mannargudi, Tamil Nadu", "code": "MQ", "name": "Mannargudi", "state": "Tamil Nadu", "zone": "SR"}, "geometry": {"type": "Point", "coordinates": [79.455639, 10.674541000000001]}}, {"id": "303", "type": "Feature", "properties": {"address": "Nagore, Tamil Nadu", "code": "NCR", "name": "Nagore", "state": "Tamil Nadu", "zone": "SR"}, "geometry": {"type": "Point", "coordinates": [79.846188, 10.818430000000001]}}, {"id": "304", "type": "Feature", "properties": {"address": "Medak, Andhra Pradesh", "code": "MZL", "name": "MIRZAPALI", "state": "Andhra Pradesh", "zone": "SCR"}, "geometry": {"type": "Point", "coordinates": [78.41529899999999, 18.017962999999998]}}, {"id": "305", "type": "Feature", "properties": {"address": "Mariani, Assam", "code": "MXN", "name": "MARIANI JN", "state": "Assam", "zone": "NFR"}, "geometry": {"type": "Point", "coordinates": [94.30820299999999, 26.652434999999997]}}, {"id": "306", "type": "Feature", "properties": {"address": "Mettupalayam, Tamil Nadu", "code": "MTP", "name": "Mettupalayam", "state": "Tamil Nadu", "zone": "SR"}, "geometry": {"type": "Point", "coordinates": [76.934533, 11.299729]}}, {"id": "307", "type": "Feature", "properties": {"address": "Nabadwip, West Bengal", "code": "NDAE", "name": "NABADWIP DHAM", "state": "West Bengal", "zone": "ER"}, "geometry": {"type": "Point", "coordinates": [88.356472, 23.396593]}}, {"id": "308", "type": "Feature", "properties": {"address": "Nanded, Maharashtra", "code": "NED", "name": "HUZUR SAHIB NANDED", "state": "Maharashtra", "zone": "SCR"}, "geometry": {"type": "Point", "coordinates": [77.31047799999999, 19.160522]}}, {"id": "309", "type": "Feature", "properties": {"address": "Dehegam, Gujarat", "code": "NHM", "name": "NANDOL DEHEGAM", "state": "Gujarat", "zone": "WR"}, "geometry": {"type": "Point", "coordinates": [72.815845, 23.17417]}}, {"id": "310", "type": "Feature", "properties": {"address": "Distt. Amreli, Gujarat", "code": "RJU", "name": "Rajula City", "state": "Gujarat", "zone": "WR"}, "geometry": {"type": "Point", "coordinates": [71.45597599999999, 21.046574999999997]}}, {"id": "311", "type": "Feature", "properties": {"address": "Namkhana, West Bengal", "code": "NMKA", "name": "Namkhana", "state": "West Bengal", "zone": "ER"}, "geometry": {"type": "Point", "coordinates": [88.239558, 21.772235000000002]}}, {"id": "312", "type": "Feature", "properties": {"address": "Narkatiaganj, Bihar", "code": "NKE", "name": "NARKATIAGANJ JN", "state": "Bihar", "zone": "ECR"}, "geometry": {"type": "Point", "coordinates": [84.464045, 27.105035]}}, {"id": "313", "type": "Feature", "properties": {"address": "Nashik, Maharashtra", "code": "NSL", "name": "NAGARSOL", "state": "Maharashtra", "zone": "SCR"}, "geometry": {"type": "Point", "coordinates": [74.541646, 20.102455]}}, {"id": "314", "type": "Feature", "properties": {"address": "Way to Narwana, Haryana", "code": "NRW", "name": "NARWANA JN", "state": "Haryana", "zone": "NR"}, "geometry": {"type": "Point", "coordinates": [76.109286, 29.588632]}}, {"id": "315", "type": "Feature", "properties": {"address": "A T Rd, Assam", "code": "NTSK", "name": "NEW TINSUKIA JN", "state": "Assam", "zone": "NFR"}, "geometry": {"type": "Point", "coordinates": [95.334128, 27.479748]}}, {"id": "316", "type": "Feature", "properties": {"address": "Supaul, Bihar", "code": "NMA", "name": "Nirmali", "state": "Bihar", "zone": "ECR"}, "geometry": {"type": "Point", "coordinates": [86.57461500000001, 26.305325]}}, {"id": "317", "type": "Feature", "properties": {"address": "Narsapur, Andhra Pradesh", "code": "NS", "name": "Narasapur", "state": "Andhra Pradesh", "zone": "SCR"}, "geometry": {"type": "Point", "coordinates": [81.699909, 16.445891]}}, {"id": "318", "type": "Feature", "properties": {"address": "Okha, Gujarat", "code": "OKHA", "name": "OKHA", "state": "Gujarat", "zone": "WR"}, "geometry": {"type": "Point", "coordinates": [69.073775, 22.470959999999998]}}, {"id": "319", "type": "Feature", "properties": {"address": "Nanjangudu, Karnataka", "code": "NTW", "name": "NANJANGUD TOWN", "state": "Karnataka", "zone": "SWR"}, "geometry": {"type": "Point", "coordinates": [76.68442999999999, 12.12211]}}, {"id": "320", "type": "Feature", "properties": {"address": "Paradip, Orissa", "code": "PRDP", "name": "Paradip", "state": "Orissa", "zone": "ECoR"}, "geometry": {"type": "Point", "coordinates": [86.62014099999999, 20.280364]}}, {"id": "321", "type": "Feature", "properties": {"address": "Palakkad, Kerala", "code": "PGTN", "name": "PALGHAT TOWN", "state": "Kerala", "zone": "SR"}, "geometry": {"type": "Point", "coordinates": [76.65216699999999, 10.7753892]}}, {"id": "322", "type": "Feature", "properties": {"address": "Panvel, Maharashtra", "code": "PNVL", "name": "PANVEL", "state": "Maharashtra", "zone": "CR"}, "geometry": {"type": "Point", "coordinates": [73.121756, 18.990918999999998]}}, {"id": "323", "type": "Feature", "properties": {"address": "Palitana, Gujarat", "code": "PIT", "name": "Palitana", "state": "Gujarat", "zone": "WR"}, "geometry": {"type": "Point", "coordinates": [71.82319700000001, 21.538300999999997]}}, {"id": "324", "type": "Feature", "properties": {"address": "Allahabad, Uttar Pradesh", "code": "PRG", "name": "PRAYAG", "state": "Uttar Pradesh", "zone": "NR"}, "geometry": {"type": "Point", "coordinates": [81.867081, 25.467939]}}, {"id": "325", "type": "Feature", "properties": {"address": "Repalle, Andhra Pradesh", "code": "RAL", "name": "Repalle", "state": "Andhra Pradesh", "zone": "SCR"}, "geometry": {"type": "Point", "coordinates": [80.828736, 16.019794]}}, {"id": "326", "type": "Feature", "properties": {"address": "Pattabiram, Tamil Nadu", "code": "PRES", "name": "Pattabiram East", "state": "Tamil Nadu", "zone": "SR"}, "geometry": {"type": "Point", "coordinates": [80.068704, 13.145847999999999]}}, {"id": "327", "type": "Feature", "properties": {"address": "Saraygarh, Bihar", "code": "RGV", "name": "Rathopur", "state": "Bihar", "zone": "ECR"}, "geometry": null}, {"id": "328", "type": "Feature", "properties": {"address": "State Highway 19, Madhya Pradesh", "code": "RMO", "name": "Ramakona", "state": "Madhya Pradesh", "zone": "SECR"}, "geometry": {"type": "Point", "coordinates": [78.826509, 21.684348999999997]}}, {"id": "329", "type": "Feature", "properties": {"address": "Rewari, Haryana", "code": "RE", "name": "REWARI", "state": "Haryana", "zone": "NWR"}, "geometry": {"type": "Point", "coordinates": [76.609414, 28.202779000000003]}}, {"id": "330", "type": "Feature", "properties": {"address": "Ramnagar, Uttarakhand", "code": "RMR", "name": "RAMNAGAR", "state": "Uttarakhand", "zone": "NER"}, "geometry": {"type": "Point", "coordinates": [79.12223900000001, 29.390223]}}, {"id": "331", "type": "Feature", "properties": {"address": "South Goa Distt., Goa", "code": "QLM", "name": "KULEM", "state": "Goa", "zone": "SWR"}, "geometry": {"type": "Point", "coordinates": [74.24423, 15.334036]}}, {"id": "332", "type": "Feature", "properties": {"address": "Rajgir, Bihar", "code": "RGD", "name": "Rajgir", "state": "Bihar", "zone": "ECR"}, "geometry": {"type": "Point", "coordinates": [85.41469699999999, 25.033068999999998]}}, {"id": "333", "type": "Feature", "properties": {"address": "Patan, Gujarat", "code": "RUJ", "name": "RANUJ", "state": "Gujarat", "zone": "WR"}, "geometry": {"type": "Point", "coordinates": [72.21524, 23.75937]}}, {"id": "334", "type": "Feature", "properties": {"address": "Birur, Karnataka", "code": "RRB", "name": "BIRUR JN", "state": "Karnataka", "zone": "SWR"}, "geometry": {"type": "Point", "coordinates": [75.974749, 13.591101]}}, {"id": "335", "type": "Feature", "properties": {"address": "Rameshwaram, Tamil Nadu", "code": "RMM", "name": "RAMESWARAM", "state": "Tamil Nadu", "zone": "SR"}, "geometry": {"type": "Point", "coordinates": [79.306787, 9.280973]}}, {"id": "336", "type": "Feature", "properties": {"address": "Rohtak, Haryana", "code": "ROK", "name": "ROHTAK JN", "state": "Haryana", "zone": "NR"}, "geometry": {"type": "Point", "coordinates": [76.57955000000001, 28.890904]}}, {"id": "337", "type": "Feature", "properties": {"address": "Raghuraj Singh Railway Station, Uttar Pradesh", "code": "RRS", "name": "Raghuraj Singh", "state": "Uttar Pradesh", "zone": "NR"}, "geometry": {"type": "Point", "coordinates": [80.87966899999999, 26.255836]}}, {"id": "338", "type": "Feature", "properties": {"address": "Singur, West Bengal", "code": "SIU", "name": "Singur", "state": "West Bengal", "zone": "ER"}, "geometry": {"type": "Point", "coordinates": [88.228712, 22.814558]}}, {"id": "339", "type": "Feature", "properties": {"address": "Runni, Bihar", "code": "RUSD", "name": "Runnisaidpur", "state": "Bihar", "zone": "ECR"}, "geometry": {"type": "Point", "coordinates": [85.519694, 26.410576]}}, {"id": "340", "type": "Feature", "properties": {"address": "Rajgarh, Rajasthan", "code": "SDLP", "name": "Sadulpur Junction", "state": "Rajasthan", "zone": "NWR"}, "geometry": {"type": "Point", "coordinates": [75.386989, 28.631138]}}, {"id": "341", "type": "Feature", "properties": {"address": "Saharsa, Bihar", "code": "SHC", "name": "SAHARSA JN", "state": "Bihar", "zone": "ECR"}, "geometry": {"type": "Point", "coordinates": [86.594953, 25.875207999999997]}}, {"id": "342", "type": "Feature", "properties": {"address": "Silghat, Assam", "code": "SHTT", "name": "Silghat Town", "state": "Assam", "zone": "NFR"}, "geometry": {"type": "Point", "coordinates": [92.929931, 26.608902]}}, {"id": "343", "type": "Feature", "properties": {"address": "Siligur, West Bengal", "code": "SGUJ", "name": "SILIGURI JN", "state": "West Bengal", "zone": "NFR"}, "geometry": {"type": "Point", "coordinates": [88.413663, 26.723204]}}, {"id": "344", "type": "Feature", "properties": {"address": "Sikar, Rajasthan", "code": "SIKR", "name": "Sikar Junction", "state": "Rajasthan", "zone": "NWR"}, "geometry": {"type": "Point", "coordinates": [75.15337799999999, 27.616275]}}, {"id": "345", "type": "Feature", "properties": {"address": "Shamli, Uttar Pradesh", "code": "SMQL", "name": "SHAMLI", "state": "Uttar Pradesh", "zone": "NR"}, "geometry": {"type": "Point", "coordinates": [77.316231, 29.444596999999998]}}, {"id": "346", "type": "Feature", "properties": {"address": "Sangli, Maharashtra", "code": "SLI", "name": "SANGLI", "state": "Maharashtra", "zone": "CR"}, "geometry": {"type": "Point", "coordinates": [74.588939, 16.858669000000003]}}, {"id": "347", "type": "Feature", "properties": {"address": "Dist. Sonebhadra, Uttar Pradesh", "code": "SKTN", "name": "Shakti Nagar", "state": "Uttar Pradesh", "zone": "ECR"}, "geometry": {"type": "Point", "coordinates": [82.704734, 24.122899]}}, {"id": "348", "type": "Feature", "properties": {"address": "Sindri, Jharkhand", "code": "SNDT", "name": "Sindri Town", "state": "Jharkhand", "zone": "?"}, "geometry": {"type": "Point", "coordinates": [86.47988299999999, 23.660992]}}, {"id": "349", "type": "Feature", "properties": {"address": "Sheopur, Madhya Pradesh", "code": "SOE", "name": "Sheopur Kalan", "state": "Madhya Pradesh", "zone": "NCR"}, "geometry": {"type": "Point", "coordinates": [76.70038600000001, 25.675538]}}, {"id": "350", "type": "Feature", "properties": {"address": "Sirsa, Haryana", "code": "SSA", "name": "Sirsa", "state": "Haryana", "zone": "NWR"}, "geometry": {"type": "Point", "coordinates": [75.034944, 29.539153]}}, {"id": "351", "type": "Feature", "properties": {"address": "Tirunelveli, Tamil Nadu", "code": "TEN", "name": "TIRUNELVELI", "state": "Tamil Nadu", "zone": "SR"}, "geometry": {"type": "Point", "coordinates": [77.707979, 8.73636]}}, {"id": "352", "type": "Feature", "properties": {"address": "Tiruchchendur, Tamil Nadu", "code": "TCN", "name": "Tiruchendur", "state": "Tamil Nadu", "zone": "SR"}, "geometry": {"type": "Point", "coordinates": [78.117118, 8.501774]}}, {"id": "353", "type": "Feature", "properties": {"address": "Ghazipur, Uttar Pradesh", "code": "TRG", "name": "Tarighat", "state": "Uttar Pradesh", "zone": "ECR"}, "geometry": {"type": "Point", "coordinates": [83.60210496000946, 25.571721452321867]}}, {"id": "354", "type": "Feature", "properties": {"address": "Tumkur, Karnataka", "code": "TK", "name": "TUMKUR", "state": "Karnataka", "zone": "SWR"}, "geometry": {"type": "Point", "coordinates": [77.10243899999999, 13.333033]}}, {"id": "355", "type": "Feature", "properties": {"address": "Thiruthuraipoondi, Tamil Nadu", "code": "TTP", "name": "Tiruturaipudi Junction", "state": "Tamil Nadu", "zone": "SR"}, "geometry": null}, {"id": "356", "type": "Feature", "properties": {"address": "Talaguppa, Karnataka", "code": "TLGP", "name": "Talguppa", "state": "Karnataka", "zone": "SWR"}, "geometry": {"type": "Point", "coordinates": [74.914093, 14.214011]}}, {"id": "357", "type": "Feature", "properties": {"address": "Gopalganj, Bihar", "code": "THE", "name": "Thawe Junction", "state": "Bihar", "zone": "NER"}, "geometry": {"type": "Point", "coordinates": [84.394398, 26.438991]}}, {"id": "358", "type": "Feature", "properties": {"address": "Thiruvarur, Tamil Nadu", "code": "TVR", "name": "THIRUVARUR JN", "state": "Tamil Nadu", "zone": "SR"}, "geometry": {"type": "Point", "coordinates": [79.63389799999999, 10.764347]}}, {"id": "359", "type": "Feature", "properties": {"address": "Tikapur Municipality, Uttar Pradesh", "code": "TQN", "name": "TIKUNIA", "state": "Uttar Pradesh", "zone": "NER"}, "geometry": {"type": "Point", "coordinates": [80.981217, 28.378823]}}, {"id": "360", "type": "Feature", "properties": {"address": "Umarpada to Jumavadi, Gujarat", "code": "UMPD", "name": "Umarpada", "state": "Gujarat", "zone": "WR"}, "geometry": null}, {"id": "361", "type": "Feature", "properties": {"address": "Tinsukia, Assam", "code": "TSK", "name": "Tinsukia Junction", "state": "Assam", "zone": "NFR"}, "geometry": {"type": "Point", "coordinates": [95.356367, 27.4864]}}, {"id": "362", "type": "Feature", "properties": {"address": "Ooty, Tamil Nadu", "code": "UAM", "name": "Udagamandalam", "state": "Tamil Nadu", "zone": "SR"}, "geometry": {"type": "Point", "coordinates": [76.694727, 11.404584999999999]}}, {"id": "363", "type": "Feature", "properties": {"address": "Valsad, Gujarat", "code": "VAPI", "name": "VAPI", "state": "Gujarat", "zone": "WR"}, "geometry": {"type": "Point", "coordinates": [72.90912700000001, 20.374337999999998]}}, {"id": "364", "type": "Feature", "properties": {"address": "Chennai, Tamil Nadu", "code": "VLCY", "name": "Velachery", "state": "Tamil Nadu", "zone": "SR"}, "geometry": {"type": "Point", "coordinates": [80.21921699999999, 12.967092000000001]}}, {"id": "365", "type": "Feature", "properties": {"address": "Una, Gujarat", "code": "UNA", "name": "Una", "state": "Gujarat", "zone": "WR"}, "geometry": {"type": "Point", "coordinates": [71.036053, 20.819025]}}, {"id": "366", "type": "Feature", "properties": {"address": "Una, Himachal Pradesh", "code": "UHL", "name": "Una Himachal", "state": "Himachal Pradesh", "zone": "NR"}, "geometry": {"type": "Point", "coordinates": [76.27566, 31.478782000000002]}}, {"id": "367", "type": "Feature", "properties": {"address": "Kanyakumari, Tamil Nadu", "code": "CAPE", "name": "KANYAKUMARI", "state": "Tamil Nadu", "zone": "SR"}, "geometry": {"type": "Point", "coordinates": [77.542504, 8.088028]}}, {"id": "368", "type": "Feature", "properties": {"address": "Yavatmal, Maharashtra", "code": "YTL", "name": "Yavatmal", "state": "Maharashtra", "zone": "CR"}, "geometry": {"type": "Point", "coordinates": [78.11973326839507, 20.387302241829445]}}, {"id": "369", "type": "Feature", "properties": {"address": "Bagalkot, Karnataka", "code": "BGK", "name": "BAGALKOT", "state": "Karnataka", "zone": "SWR"}, "geometry": {"type": "Point", "coordinates": [75.7002383, 16.1787931]}}, {"id": "370", "type": "Feature", "properties": {"address": "Chandrapur, Maharashtra", "code": "WSA", "name": "Wadsa", "state": "Maharashtra", "zone": "SECR"}, "geometry": {"type": "Point", "coordinates": [79.96351299999999, 20.624198]}}, {"id": "371", "type": "Feature", "properties": {"address": "Bellary, Karnataka", "code": "BAY", "name": "BELLARY JN", "state": "Karnataka", "zone": "SWR"}, "geometry": {"type": "Point", "coordinates": [76.921995, 15.145135]}}, {"id": "372", "type": "Feature", "properties": {"address": "Bhind, Madhya Pradesh", "code": "BIX", "name": "BHIND", "state": "Madhya Pradesh", "zone": "NCR"}, "geometry": {"type": "Point", "coordinates": [78.77743530000001, 26.588904900000003]}}, {"id": "373", "type": "Feature", "properties": {"address": "Jodhpur, Rajasthan", "code": "BGKT", "name": "BHAGAT KI KOTHI", "state": "Rajasthan", "zone": "NWR"}, "geometry": {"type": "Point", "coordinates": [73.0133366, 26.2484972]}}, {"id": "374", "type": "Feature", "properties": {"address": "Police Station Rd, West Bengal", "code": "AZ", "name": "AZIMGANJ JN", "state": "West Bengal", "zone": "ER"}, "geometry": {"type": "Point", "coordinates": [88.256764, 24.219053]}}, {"id": "375", "type": "Feature", "properties": {"address": "Bilimora, Gujarat", "code": "BIM", "name": "BILIMORA JN", "state": "Gujarat", "zone": "WR"}, "geometry": {"type": "Point", "coordinates": [72.970474, 20.763319]}}, {"id": "376", "type": "Feature", "properties": {"address": "Secunderabad, Andhra Pradesh", "code": "BMO", "name": "BOLARUM", "state": "Andhra Pradesh", "zone": "SCR"}, "geometry": {"type": "Point", "coordinates": [78.5154167, 17.5335493]}}, {"id": "377", "type": "Feature", "properties": {"address": "Phulwaria, Uttar Pradesh", "code": "BHBR", "name": "Bathua Bazar", "state": "Uttar Pradesh", "zone": "NER"}, "geometry": {"type": "Point", "coordinates": [84.2321793958, 26.4968303633]}}, {"id": "378", "type": "Feature", "properties": {"address": "National Highway 215, Orissa", "code": "BSPX", "name": "Banspani", "state": "Orissa", "zone": "SER"}, "geometry": {"type": "Point", "coordinates": [85.42341227, 22.00024281]}}, {"id": "379", "type": "Feature", "properties": {"address": "Raipur, Chhattisgarh", "code": "AVP", "name": "Abhanpur Junction", "state": "Chhattisgarh", "zone": "SECR"}, "geometry": {"type": "Point", "coordinates": [81.74489899999999, 21.052203000000002]}}, {"id": "380", "type": "Feature", "properties": {"address": "Varanasi, Uttar Pradesh", "code": "BCY", "name": "VARANASI CITY", "state": "Uttar Pradesh", "zone": "NER"}, "geometry": {"type": "Point", "coordinates": [83.0141142, 25.3341176]}}, {"id": "381", "type": "Feature", "properties": {"address": "Mumbai, Maharashtra", "code": "DDR", "name": "MUMBAI DADAR WEST", "state": "Maharashtra", "zone": "WR"}, "geometry": {"type": "Point", "coordinates": [72.84346500000001, 19.019731]}}, {"id": "382", "type": "Feature", "properties": {"address": "Bengaluru, Karnataka", "code": "BNC", "name": "BANGALORE CANT", "state": "Karnataka", "zone": "SWR"}, "geometry": {"type": "Point", "coordinates": [77.59932690000001, 12.9936735]}}, {"id": "383", "type": "Feature", "properties": {"address": "Mumbai, Maharashtra", "code": "BDTS", "name": "MUMBAI BANDRA TERMINUS", "state": "Maharashtra", "zone": "WR"}, "geometry": {"type": "Point", "coordinates": [72.840535, 19.061911]}}, {"id": "384", "type": "Feature", "properties": {"address": "Chandrapur, Maharashtra", "code": "CAF", "name": "Chanda Fort", "state": "Maharashtra", "zone": "SECR"}, "geometry": {"type": "Point", "coordinates": [79.3122585, 19.9400612]}}, {"id": "385", "type": "Feature", "properties": {"address": "Birmitrapur, Orissa", "code": "BRMP", "name": "Biramitrapur", "state": "Orissa", "zone": "SER"}, "geometry": {"type": "Point", "coordinates": [84.7369583, 22.3971312]}}, {"id": "386", "type": "Feature", "properties": {"address": "Dharwad, Karnataka", "code": "DWR", "name": "DHARWAR", "state": "Karnataka", "zone": "SWR"}, "geometry": {"type": "Point", "coordinates": [75.004552, 15.440386]}}, {"id": "387", "type": "Feature", "properties": {"address": "K B Rd, Assam", "code": "FKG", "name": "FURKATING JN", "state": "Assam", "zone": "NFR"}, "geometry": {"type": "Point", "coordinates": [94.00269200000001, 26.465652000000002]}}, {"id": "388", "type": "Feature", "properties": {"address": "Bhavnagar, Gujarat", "code": "BVP", "name": "BHAVANAGAR PARA", "state": "Gujarat", "zone": "WR"}, "geometry": {"type": "Point", "coordinates": [72.11868199999999, 21.770889999999998]}}, {"id": "389", "type": "Feature", "properties": {"address": "Bhavnagar, Gujarat", "code": "BVC", "name": "BHAVNAGAR TERMINUS", "state": "Gujarat", "zone": "WR"}, "geometry": {"type": "Point", "coordinates": [72.141059, 21.781668]}}, {"id": "390", "type": "Feature", "properties": {"address": "State Highway 57, West Bengal", "code": "DGHA", "name": "Digha Flag Station", "state": "West Bengal", "zone": "?"}, "geometry": {"type": "Point", "coordinates": [87.507655, 21.622377]}}, {"id": "391", "type": "Feature", "properties": {"address": "Madhubani, Bihar", "code": "JJP", "name": "Jhanjharpur", "state": "Bihar", "zone": "?"}, "geometry": {"type": "Point", "coordinates": [86.267833, 26.228493]}}, {"id": "392", "type": "Feature", "properties": {"address": "Kendujhar, Orissa", "code": "KDJR", "name": "Kendujhargarh", "state": "Orissa", "zone": "ECoR"}, "geometry": {"type": "Point", "coordinates": [85.62690500000001, 21.66029]}}, {"id": "393", "type": "Feature", "properties": {"address": "Krishnanagar, West Bengal", "code": "KNJ", "name": "Krishnanagar City Junction", "state": "West Bengal", "zone": "ER"}, "geometry": {"type": "Point", "coordinates": [88.493636, 23.388714]}}, {"id": "394", "type": "Feature", "properties": {"address": "Malsian Rd, Punjab", "code": "LNK", "name": "LOHIAN KHAS JN", "state": "Punjab", "zone": "NR"}, "geometry": {"type": "Point", "coordinates": [75.196445, 31.165462]}}, {"id": "395", "type": "Feature", "properties": {"address": "Bikaner, Rajasthan", "code": "LGH", "name": "LALGARH JN", "state": "Rajasthan", "zone": "NWR"}, "geometry": {"type": "Point", "coordinates": [73.313909, 28.043638]}}, {"id": "396", "type": "Feature", "properties": {"address": "Lakhimpur, Uttar Pradesh", "code": "LMP", "name": "LAKHIMPUR", "state": "Uttar Pradesh", "zone": "NER"}, "geometry": {"type": "Point", "coordinates": [80.777625, 27.947414]}}, {"id": "397", "type": "Feature", "properties": {"address": "way to railwaystation, Gujarat", "code": "MDSA", "name": "Modasa", "state": "Gujarat", "zone": "WR"}, "geometry": {"type": "Point", "coordinates": [73.304944, 23.451923]}}, {"id": "398", "type": "Feature", "properties": {"address": "Mangalore, Karnataka", "code": "MAQ", "name": "MANGALORE CNTL", "state": "Karnataka", "zone": "SR"}, "geometry": {"type": "Point", "coordinates": [74.844068, 12.862325]}}, {"id": "399", "type": "Feature", "properties": {"address": "Marwar Junction, Rajasthan", "code": "MJ", "name": "MARWAR JN", "state": "Rajasthan", "zone": "NWR"}, "geometry": {"type": "Point", "coordinates": [73.609301, 25.720478999999997]}}, {"id": "400", "type": "Feature", "properties": {"address": "Varanasi, Uttar Pradesh", "code": "MUV", "name": "MANDUADIH", "state": "Uttar Pradesh", "zone": "NER"}, "geometry": {"type": "Point", "coordinates": [82.972079, 25.300001]}}, {"id": "401", "type": "Feature", "properties": {"address": "Kolar Gold Fields, Karnataka", "code": "MKM", "name": "Marikuppam", "state": "Karnataka", "zone": "SWR"}, "geometry": {"type": "Point", "coordinates": [78.263789, 12.918968]}}, {"id": "402", "type": "Feature", "properties": {"address": "Siuri, West Bengal", "code": "SURI", "name": "SIURI", "state": "West Bengal", "zone": "ER"}, "geometry": {"type": "Point", "coordinates": [87.5327, 23.890185]}}, {"id": "403", "type": "Feature", "properties": {"address": "Nagercoil, Tamil Nadu", "code": "NCJ", "name": "NAGERCOIL JN", "state": "Tamil Nadu", "zone": "SR"}, "geometry": {"type": "Point", "coordinates": [77.44347, 8.17385]}}, {"id": "404", "type": "Feature", "properties": {"address": "Telangana Region, Andhra Pradesh", "code": "MUGR", "name": "Manuguru", "state": "Andhra Pradesh", "zone": "SCR"}, "geometry": {"type": "Point", "coordinates": [80.799034, 17.925272]}}, {"id": "405", "type": "Feature", "properties": {"address": "Palanpur, Gujarat", "code": "PNU", "name": "PALANPUR JN", "state": "Gujarat", "zone": "WR"}, "geometry": {"type": "Point", "coordinates": [72.430172, 24.174433]}}, {"id": "406", "type": "Feature", "properties": {"address": "State Highway 10, Jharkhand", "code": "RJL", "name": "Rajmahal", "state": "Jharkhand", "zone": "ER"}, "geometry": {"type": "Point", "coordinates": [87.831451, 25.052535]}}, {"id": "407", "type": "Feature", "properties": {"address": "Sabalgarh, Madhya Pradesh", "code": "SBL", "name": "Sabalgarh", "state": "Madhya Pradesh", "zone": "NCR"}, "geometry": {"type": "Point", "coordinates": [77.4087421698, 26.2512745542]}}, {"id": "408", "type": "Feature", "properties": {"address": "Sitapur, Uttar Pradesh", "code": "STP", "name": "SITAPUR", "state": "Uttar Pradesh", "zone": "NER"}, "geometry": {"type": "Point", "coordinates": [80.697762, 27.558728]}}, {"id": "409", "type": "Feature", "properties": {"address": "SH123, Maharashtra", "code": "SWV", "name": "SAWANTWADI ROAD", "state": "Maharashtra", "zone": "KR"}, "geometry": {"type": "Point", "coordinates": [73.785308, 15.866512]}}, {"id": "410", "type": "Feature", "properties": {"address": "Sir Mathura, Rajasthan", "code": "SRMT", "name": "Sirmuttra", "state": "Rajasthan", "zone": "NCR"}, "geometry": {"type": "Point", "coordinates": [77.375168, 26.518904]}}, {"id": "411", "type": "Feature", "properties": {"address": "Shimoga, Karnataka", "code": "SMET", "name": "Shimoga Town", "state": "Karnataka", "zone": "SWR"}, "geometry": {"type": "Point", "coordinates": [75.583174, 13.943036999999999]}}, {"id": "412", "type": "Feature", "properties": {"address": "Hubli, Karnataka", "code": "UBL", "name": "HUBLI JN", "state": "Karnataka", "zone": "SWR"}, "geometry": {"type": "Point", "coordinates": [75.148104, 15.350302000000001]}}, {"id": "413", "type": "Feature", "properties": {"address": "Tarkeshwar, West Bengal", "code": "TAK", "name": "Tarakeswar", "state": "West Bengal", "zone": "ER"}, "geometry": {"type": "Point", "coordinates": [88.013437, 22.882582]}}, {"id": "414", "type": "Feature", "properties": {"address": "Shahjahanpur, Uttar Pradesh", "code": "SZP", "name": "Shahjahanpur", "state": "Uttar Pradesh", "zone": "NER"}, "geometry": {"type": "Point", "coordinates": [79.904536, 27.893402000000002]}}, {"id": "415", "type": "Feature", "properties": {"address": "Balaghat, Madhya Pradesh", "code": "TRDI", "name": "Tirodi", "state": "Madhya Pradesh", "zone": "SECR"}, "geometry": {"type": "Point", "coordinates": [79.724564, 21.688066]}}, {"id": "416", "type": "Feature", "properties": {"address": "Tanakpur, Uttarakhand", "code": "TPU", "name": "Tanakpur", "state": "Uttarakhand", "zone": "NER"}, "geometry": {"type": "Point", "coordinates": [80.10904500000001, 29.067103]}}, {"id": "417", "type": "Feature", "properties": {"address": "Near Bellary Road Bangalore Rural Dt., Karnataka", "code": "DHL", "name": "Devanhalli", "state": "Karnataka", "zone": "SWR"}, "geometry": {"type": "Point", "coordinates": [77.70463099999999, 13.246834]}}, {"id": "418", "type": "Feature", "properties": {"address": "Tantpur, Rajasthan", "code": "TPO", "name": "Tantpur", "state": "Rajasthan", "zone": "NCR"}, "geometry": {"type": "Point", "coordinates": [77.47803025, 26.83193514]}}, {"id": "419", "type": "Feature", "properties": {"address": "Purulia.Div HQ SER, West Bengal", "code": "ADRA", "name": "ADRA JN", "state": "West Bengal", "zone": "SER"}, "geometry": {"type": "Point", "coordinates": [86.67466499999999, 23.495992]}}, {"id": "420", "type": "Feature", "properties": {"address": "Bhuj, Gujarat", "code": "BHUJ", "name": "BHUJ", "state": "Gujarat", "zone": "WR"}, "geometry": {"type": "Point", "coordinates": [69.6778278, 23.2660225]}}, {"id": "421", "type": "Feature", "properties": {"address": "Amravati, Maharashtra", "code": "AMI", "name": "Amravati", "state": "Maharashtra", "zone": "CR"}, "geometry": {"type": "Point", "coordinates": [77.7577863, 20.930082900000002]}}, {"id": "422", "type": "Feature", "properties": {"address": "Kottagudem, Andhra Pradesh", "code": "BDCR", "name": "Bhadrachalam Road", "state": "Andhra Pradesh", "zone": "SCR"}, "geometry": {"type": "Point", "coordinates": [80.616024, 17.550365]}}, {"id": "423", "type": "Feature", "properties": {"address": "National Highway 107, Bihar", "code": "BDMA", "name": "Budhma", "state": "Bihar", "zone": "ECR"}, "geometry": {"type": "Point", "coordinates": [86.85700899999999, 25.902768]}}, {"id": "424", "type": "Feature", "properties": {"address": "Chirimiri, Chhattisgarh", "code": "CHRM", "name": "Chirmiri", "state": "Chhattisgarh", "zone": "SECR"}, "geometry": {"type": "Point", "coordinates": [82.34955079999999, 23.1894855]}}, {"id": "425", "type": "Feature", "properties": {"address": "Adilabad, Andhra Pradesh", "code": "ADB", "name": "ADILABAD", "state": "Andhra Pradesh", "zone": "SCR"}, "geometry": {"type": "Point", "coordinates": [78.535285, 19.680104]}}, {"id": "426", "type": "Feature", "properties": {"address": "Kannur, Kerala", "code": "CAN", "name": "KANNUR", "state": "Kerala", "zone": "SR"}, "geometry": {"type": "Point", "coordinates": [75.3683267, 11.870694199999999]}}, {"id": "427", "type": "Feature", "properties": {"address": "Bhiwani, Haryana", "code": "BNW", "name": "Bhiwani", "state": "Haryana", "zone": "NWR"}, "geometry": {"type": "Point", "coordinates": [76.1255797, 28.7984261]}}, {"id": "428", "type": "Feature", "properties": {"address": "Patan, Gujarat", "code": "PTN", "name": "PATAN", "state": "Gujarat", "zone": "WR"}, "geometry": {"type": "Point", "coordinates": [72.13167200000001, 23.853292]}}, {"id": "429", "type": "Feature", "properties": {"address": "Arasikere, Karnataka", "code": "ASK", "name": "ARSIKERE JN", "state": "Karnataka", "zone": "SWR"}, "geometry": {"type": "Point", "coordinates": [76.2520848, 13.314425]}}, {"id": "430", "type": "Feature", "properties": {"address": "Bodhan, Andhra Pradesh", "code": "BDHN", "name": "Bodhan", "state": "Andhra Pradesh", "zone": "SCR"}, "geometry": {"type": "Point", "coordinates": [77.8881657, 18.645933]}}, {"id": "431", "type": "Feature", "properties": {"address": "Paprola, Himachal Pradesh", "code": "BJPL", "name": "BAIJNATH PAPROLA", "state": "Himachal Pradesh", "zone": "NR"}, "geometry": {"type": "Point", "coordinates": [76.632508, 32.050368999999996]}}, {"id": "432", "type": "Feature", "properties": {"address": "Bari Sadri, Rajasthan", "code": "BI", "name": "BARI SADRI", "state": "Rajasthan", "zone": "NWR"}, "geometry": {"type": "Point", "coordinates": [74.468715, 24.411465]}}, {"id": "433", "type": "Feature", "properties": {"address": "Bhilad, Gujarat", "code": "BLD", "name": "BHILAD", "state": "Gujarat", "zone": "WR"}, "geometry": {"type": "Point", "coordinates": [72.887446, 20.275323200000003]}}, {"id": "434", "type": "Feature", "properties": {"address": "East Nimar, Madhya Pradesh", "code": "BIR", "name": "Bir", "state": "Madhya Pradesh", "zone": "WCR"}, "geometry": {"type": "Point", "coordinates": [76.547232, 22.05264]}}, {"id": "435", "type": "Feature", "properties": {"address": "03845-269546., Assam", "code": "BPB", "name": "BADARPUR JN", "state": "Assam", "zone": "NFR"}, "geometry": {"type": "Point", "coordinates": [92.5563227, 24.865177499999998]}}, {"id": "436", "type": "Feature", "properties": {"address": "Bathinda, Punjab", "code": "BTI", "name": "BHATINDA JN", "state": "Punjab", "zone": "NR"}, "geometry": {"type": "Point", "coordinates": [74.932083, 30.209488]}}, {"id": "437", "type": "Feature", "properties": {"address": "NH 20, Punjab", "code": "PTK", "name": "PATHANKOT", "state": "Punjab", "zone": "NR"}, "geometry": {"type": "Point", "coordinates": [75.644427, 32.271804]}}, {"id": "438", "type": "Feature", "properties": {"address": "Balaghat, Madhya Pradesh", "code": "BTC", "name": "Balaghat Junction", "state": "Madhya Pradesh", "zone": "SECR"}, "geometry": {"type": "Point", "coordinates": [80.19988529999999, 21.8116285]}}, {"id": "439", "type": "Feature", "properties": {"address": "Berhampore, West Bengal", "code": "BPC", "name": "Berhampore Court", "state": "West Bengal", "zone": "ER"}, "geometry": {"type": "Point", "coordinates": [88.263642, 24.0890841]}}, {"id": "440", "type": "Feature", "properties": {"address": "Kolkata, West Bengal", "code": "BT", "name": "Barasat", "state": "West Bengal", "zone": "ER"}, "geometry": {"type": "Point", "coordinates": [88.48348299999999, 22.723879999999998]}}, {"id": "441", "type": "Feature", "properties": {"address": "Sundargarh, Odisha", "code": "BXF", "name": "Barsuan", "state": "Odisha", "zone": "SER"}, "geometry": {"type": "Point", "coordinates": [85.119799, 21.847398000000002]}}, {"id": "442", "type": "Feature", "properties": {"address": "Bayana, Rajasthan", "code": "BXN", "name": "BAYANA JN", "state": "Rajasthan", "zone": "WCR"}, "geometry": {"type": "Point", "coordinates": [77.29713100000001, 26.916354000000002]}}, {"id": "443", "type": "Feature", "properties": {"address": "New Rohtak road, Delhi NCT", "code": "DEE", "name": "DELHI SARAI ROHILLA", "state": "Delhi NCT", "zone": "NR"}, "geometry": {"type": "Point", "coordinates": [77.187106, 28.662992]}}, {"id": "444", "type": "Feature", "properties": {"address": "Garla, Andhra Pradesh", "code": "DKJ", "name": "DORNAKAL JN", "state": "Andhra Pradesh", "zone": "SCR"}, "geometry": {"type": "Point", "coordinates": [80.153157, 17.445987000000002]}}, {"id": "445", "type": "Feature", "properties": {"address": "Gadag, Karnataka", "code": "GDG", "name": "GADAG JN", "state": "Karnataka", "zone": "SWR"}, "geometry": {"type": "Point", "coordinates": [75.642481, 15.437048]}}, {"id": "446", "type": "Feature", "properties": {"address": "Delvada, Gujarat", "code": "DVA", "name": "Delvada", "state": "Gujarat", "zone": "WR"}, "geometry": {"type": "Point", "coordinates": [71.041529, 20.773429]}}, {"id": "447", "type": "Feature", "properties": {"address": "Dalli Rajhara, Chhattisgarh", "code": "DRZ", "name": "Dalli Rajhara", "state": "Chhattisgarh", "zone": "SECR"}, "geometry": {"type": "Point", "coordinates": [81.067973, 20.586729]}}, {"id": "448", "type": "Feature", "properties": {"address": "Korba, Chhattisgarh", "code": "GAD", "name": "Gevra Road", "state": "Chhattisgarh", "zone": "SECR"}, "geometry": {"type": "Point", "coordinates": [82.64566, 22.348523999999998]}}, {"id": "449", "type": "Feature", "properties": {"address": "Jwalamukhi, Himachal Pradesh", "code": "JMKR", "name": "JAWLMUKHI ROAD", "state": "Himachal Pradesh", "zone": "NR"}, "geometry": {"type": "Point", "coordinates": [76.226427, 32.015744000000005]}}, {"id": "450", "type": "Feature", "properties": {"address": "Jind, Haryana", "code": "JIND", "name": "JIND JN", "state": "Haryana", "zone": "NR"}, "geometry": {"type": "Point", "coordinates": [76.28961699999999, 29.328875999999998]}}, {"id": "451", "type": "Feature", "properties": {"address": "Karwar, Karnataka", "code": "KAWR", "name": "KARWAR", "state": "Karnataka", "zone": "KR"}, "geometry": {"type": "Point", "coordinates": [74.183139, 14.821387]}}, {"id": "452", "type": "Feature", "properties": {"address": "Islampur, Bihar", "code": "IPR", "name": "Islampur", "state": "Bihar", "zone": "ECR"}, "geometry": {"type": "Point", "coordinates": [85.2173007153, 25.138577101499997]}}, {"id": "453", "type": "Feature", "properties": {"address": "Jagdalpur, Chhattisgarh", "code": "JDB", "name": "JAGDALPUR", "state": "Chhattisgarh", "zone": "ECoR"}, "geometry": {"type": "Point", "coordinates": [82.013757, 19.066004]}}, {"id": "454", "type": "Feature", "properties": {"address": "Jaijon Doaba, Punjab", "code": "JJJ", "name": "Jaijon Doaba", "state": "Punjab", "zone": "NR"}, "geometry": {"type": "Point", "coordinates": [76.134971, 31.349656]}}, {"id": "455", "type": "Feature", "properties": {"address": "Hosur, Tamil Nadu", "code": "HSRA", "name": "Hosur", "state": "Tamil Nadu", "zone": "SWR"}, "geometry": {"type": "Point", "coordinates": [77.822839, 12.717606]}}, {"id": "456", "type": "Feature", "properties": {"address": "Kakinada, Andhra Pradesh", "code": "COA", "name": "Kakinada Port", "state": "Andhra Pradesh", "zone": "SCR"}, "geometry": {"type": "Point", "coordinates": [82.240057, 16.955204000000002]}}, {"id": "457", "type": "Feature", "properties": {"address": "Chitrakoot Karvi, Uttar Pradesh", "code": "CKTD", "name": "CHITRAKUTDHAM KARWI", "state": "Uttar Pradesh", "zone": "NCR"}, "geometry": {"type": "Point", "coordinates": [80.922775, 25.217610999999998]}}, {"id": "458", "type": "Feature", "properties": {"address": "National Highway 4A, Karnataka", "code": "CLR", "name": "CASTLE ROCK", "state": "Karnataka", "zone": "SWR"}, "geometry": {"type": "Point", "coordinates": [74.334484, 15.397879]}}, {"id": "459", "type": "Feature", "properties": {"address": "Kurseong, West Bengal", "code": "KGN", "name": "Kurseong", "state": "West Bengal", "zone": "NFR"}, "geometry": {"type": "Point", "coordinates": [88.277001, 26.877401000000003]}}, {"id": "460", "type": "Feature", "properties": {"address": "Chopan, Uttar Pradesh", "code": "CPU", "name": "CHOPAN", "state": "Uttar Pradesh", "zone": "ECR"}, "geometry": {"type": "Point", "coordinates": [83.025843, 24.51403]}}, {"id": "461", "type": "Feature", "properties": {"address": "Chittorgarh, Rajasthan", "code": "COR", "name": "CHITTAURGARH", "state": "Rajasthan", "zone": "WR"}, "geometry": {"type": "Point", "coordinates": [74.623687, 24.874340999999998]}}, {"id": "462", "type": "Feature", "properties": {"address": "Degaon, Maharashtra", "code": "DAB", "name": "DHARMABAD", "state": "Maharashtra", "zone": "SCR"}, "geometry": {"type": "Point", "coordinates": [77.8493415012, 18.888260310099998]}}, {"id": "463", "type": "Feature", "properties": {"address": "Choranda, Gujarat", "code": "CRND", "name": "Choranda Junction", "state": "Gujarat", "zone": "WR"}, "geometry": null}, {"id": "464", "type": "Feature", "properties": {"address": "Dhasa, Gujarat", "code": "DAS", "name": "DHASA JN", "state": "Gujarat", "zone": "WR"}, "geometry": {"type": "Point", "coordinates": [71.51800800000001, 21.782545]}}, {"id": "465", "type": "Feature", "properties": {"address": "Amreli, Gujarat", "code": "KJV", "name": "Khijadiya Junction", "state": "Gujarat", "zone": "WR"}, "geometry": {"type": "Point", "coordinates": [71.275556, 21.740875]}}, {"id": "466", "type": "Feature", "properties": {"address": "Khandwa, Madhya Pradesh", "code": "KNW", "name": "KHANDWA", "state": "Madhya Pradesh", "zone": "CR"}, "geometry": {"type": "Point", "coordinates": [76.353227, 21.823596]}}, {"id": "467", "type": "Feature", "properties": {"address": "Diamond Harbour, West Bengal", "code": "DH", "name": "Diamond Harbour", "state": "West Bengal", "zone": "ER"}, "geometry": {"type": "Point", "coordinates": [88.18991600000001, 22.191902]}}, {"id": "468", "type": "Feature", "properties": {"address": "Kolhapur, Maharashtra", "code": "KOP", "name": "C SHAHU M RAJ KOLHAPUR TERM", "state": "Maharashtra", "zone": "CR"}, "geometry": {"type": "Point", "coordinates": [74.237695, 16.70257]}}, {"id": "469", "type": "Feature", "properties": {"address": "Kirandul, Chhattisgarh", "code": "KRDL", "name": "Kirandul", "state": "Chhattisgarh", "zone": "ECoR"}, "geometry": {"type": "Point", "coordinates": [81.25813099999999, 18.757486]}}, {"id": "470", "type": "Feature", "properties": {"address": "Jamnagar, Gujarat", "code": "KNLS", "name": "KANALAS JN", "state": "Gujarat", "zone": "WR"}, "geometry": {"type": "Point", "coordinates": [69.896549, 22.319955]}}, {"id": "471", "type": "Feature", "properties": {"address": "Bhiwani Distt., Haryana", "code": "LHU", "name": "Loharu", "state": "Haryana", "zone": "NWR"}, "geometry": {"type": "Point", "coordinates": [75.801613, 28.427051]}}, {"id": "472", "type": "Feature", "properties": {"address": "Katni, Madhya Pradesh", "code": "KTE", "name": "KATNI", "state": "Madhya Pradesh", "zone": "WCR"}, "geometry": {"type": "Point", "coordinates": [80.400543, 23.833385]}}, {"id": "473", "type": "Feature", "properties": {"address": "National Highway 75, Madhya Pradesh", "code": "KURJ", "name": "KHAJURAHO", "state": "Madhya Pradesh", "zone": "NCR"}, "geometry": {"type": "Point", "coordinates": [79.8900217, 24.7969839]}}, {"id": "474", "type": "Feature", "properties": {"address": "National Highway 75, Jharkhand", "code": "LAD", "name": "Lohardaga", "state": "Jharkhand", "zone": "SER"}, "geometry": {"type": "Point", "coordinates": [84.70733, 23.445967]}}, {"id": "475", "type": "Feature", "properties": {"address": "Lumding. Ph:-03674-263366, Assam", "code": "LMG", "name": "LUMDING JN", "state": "Assam", "zone": "NFR"}, "geometry": {"type": "Point", "coordinates": [93.17660000000001, 25.750035999999998]}}, {"id": "476", "type": "Feature", "properties": {"address": "Madhubani, Bihar", "code": "LKQ", "name": "Laukaha Bazar", "state": "Bihar", "zone": "ECR"}, "geometry": {"type": "Point", "coordinates": [86.463013, 26.543198]}}, {"id": "477", "type": "Feature", "properties": {"address": "Latur, Maharashtra", "code": "LUR", "name": "LATUR", "state": "Maharashtra", "zone": "CR"}, "geometry": {"type": "Point", "coordinates": [76.55604899999999, 18.429166]}}, {"id": "478", "type": "Feature", "properties": {"address": "Rangareddy, Andhra Pradesh", "code": "MED", "name": "MEDCHAL", "state": "Andhra Pradesh", "zone": "SCR"}, "geometry": {"type": "Point", "coordinates": [78.474557, 17.639335]}}, {"id": "479", "type": "Feature", "properties": {"address": "Mahuva, Gujarat", "code": "MHV", "name": "MAHUVA JN", "state": "Gujarat", "zone": "WR"}, "geometry": {"type": "Point", "coordinates": [71.756011, 21.09412]}}, {"id": "480", "type": "Feature", "properties": {"address": "Mehsana, Gujarat", "code": "MSH", "name": "MAHESANA JN", "state": "Gujarat", "zone": "WR"}, "geometry": {"type": "Point", "coordinates": [72.388708, 23.602623]}}, {"id": "481", "type": "Feature", "properties": {"address": "JLB Road Mysore, Karnataka", "code": "MYS", "name": "MYSORE JN", "state": "Karnataka", "zone": "SWR"}, "geometry": {"type": "Point", "coordinates": [76.646013, 12.318946]}}, {"id": "482", "type": "Feature", "properties": {"address": "Parbhani, Maharashtra", "code": "PBN", "name": "PARBHANI JN", "state": "Maharashtra", "zone": "SCR"}, "geometry": {"type": "Point", "coordinates": [76.774119, 19.257460000000002]}}, {"id": "483", "type": "Feature", "properties": {"address": "Purna, Maharashtra", "code": "PAU", "name": "PURNA JN", "state": "Maharashtra", "zone": "SCR"}, "geometry": {"type": "Point", "coordinates": [77.024985, 19.180526999999998]}}, {"id": "484", "type": "Feature", "properties": {"address": "Midwest, Uttar Pradesh", "code": "NPR", "name": "Nepalganj Road", "state": "Uttar Pradesh", "zone": "NER"}, "geometry": {"type": "Point", "coordinates": [81.60073, 28.010872]}}, {"id": "485", "type": "Feature", "properties": {"address": "Nautanwa, Uttar Pradesh", "code": "NTV", "name": "Nautanwa", "state": "Uttar Pradesh", "zone": "NER"}, "geometry": {"type": "Point", "coordinates": [83.42129700000001, 27.42688]}}, {"id": "486", "type": "Feature", "properties": {"address": "Banda(05192-224813), Uttar Pradesh", "code": "BNDA", "name": "BANDA JN", "state": "Uttar Pradesh", "zone": "NCR"}, "geometry": {"type": "Point", "coordinates": [80.336246, 25.477677]}}, {"id": "487", "type": "Feature", "properties": {"address": "South Blvd, Puducherry", "code": "PDY", "name": "Puducherry", "state": "Puducherry", "zone": "SR"}, "geometry": {"type": "Point", "coordinates": [79.828127, 11.925445999999999]}}, {"id": "488", "type": "Feature", "properties": {"address": "Pandharpur Ph:02186-223227, Maharashtra", "code": "PVR", "name": "PANDHARPUR", "state": "Maharashtra", "zone": "CR"}, "geometry": {"type": "Point", "coordinates": [75.319283, 17.66849]}}, {"id": "489", "type": "Feature", "properties": {"address": "Rajkot, Gujarat", "code": "RJT", "name": "RAJKOT JN", "state": "Gujarat", "zone": "WR"}, "geometry": {"type": "Point", "coordinates": [70.803446, 22.312206]}}, {"id": "490", "type": "Feature", "properties": {"address": "Indore, Madhya Pradesh", "code": "INDB", "name": "INDORE JN BG", "state": "Madhya Pradesh", "zone": "WR"}, "geometry": {"type": "Point", "coordinates": [75.868429, 22.71757]}}, {"id": "491", "type": "Feature", "properties": {"address": "Ratnagiri 02352228951, Maharashtra", "code": "RN", "name": "RATNAGIRI", "state": "Maharashtra", "zone": "KR"}, "geometry": {"type": "Point", "coordinates": [73.356938, 17.002793]}}, {"id": "492", "type": "Feature", "properties": {"address": "Sugauli, Bihar", "code": "SGL", "name": "SAGAULI JN", "state": "Bihar", "zone": "ECR"}, "geometry": {"type": "Point", "coordinates": [84.73934, 26.758187]}}, {"id": "493", "type": "Feature", "properties": {"address": "Raxaul, Bihar", "code": "RXL", "name": "RAXAUL JN", "state": "Bihar", "zone": "ECR"}, "geometry": {"type": "Point", "coordinates": [84.84456399999999, 26.987018000000003]}}, {"id": "494", "type": "Feature", "properties": {"address": "Salempur, Uttar Pradesh", "code": "SRU", "name": "SALEMPUR JN", "state": "Uttar Pradesh", "zone": "NER"}, "geometry": {"type": "Point", "coordinates": [83.923271, 26.298048]}}, {"id": "495", "type": "Feature", "properties": {"address": "SH 58, Maharashtra", "code": "STR", "name": "SATARA", "state": "Maharashtra", "zone": "CR"}, "geometry": {"type": "Point", "coordinates": [74.063727, 17.688361]}}, {"id": "496", "type": "Feature", "properties": {"address": "Pitampura, Delhi NCT", "code": "SSB", "name": "SHAKURBASTI", "state": "Delhi NCT", "zone": "NR"}, "geometry": {"type": "Point", "coordinates": [77.1299115857, 28.680227328700003]}}, {"id": "497", "type": "Feature", "properties": {"address": "Shimla, Himachal Pradesh", "code": "SML", "name": "Shimla", "state": "Himachal Pradesh", "zone": "NR"}, "geometry": {"type": "Point", "coordinates": [77.159932, 31.102794]}}, {"id": "498", "type": "Feature", "properties": {"address": "Puttur, Karnataka", "code": "KBPR", "name": "Kabakaputtur", "state": "Karnataka", "zone": "SWR"}, "geometry": {"type": "Point", "coordinates": [75.2045015, 12.7683965]}}, {"id": "499", "type": "Feature", "properties": {"address": "Thanjavur, Tamil Nadu", "code": "TJ", "name": "THANJAVUR", "state": "Tamil Nadu", "zone": "SR"}, "geometry": {"type": "Point", "coordinates": [79.138296, 10.778085]}}, {"id": "500", "type": "Feature", "properties": {"address": "Surendra Nagar, Gujarat", "code": "SUNR", "name": "SURENDRANAGAR", "state": "Gujarat", "zone": "WR"}, "geometry": {"type": "Point", "coordinates": [71.630056, 22.7443]}}, {"id": "501", "type": "Feature", "properties": {"address": "Telibandha, Chhattisgarh", "code": "TBD", "name": "Telibandha", "state": "Chhattisgarh", "zone": "SECR"}, "geometry": {"type": "Point", "coordinates": [81.67053, 21.235642]}}, {"id": "502", "type": "Feature", "properties": {"address": "Veraval, Gujarat", "code": "VRL", "name": "VERAVAL", "state": "Gujarat", "zone": "WR"}, "geometry": {"type": "Point", "coordinates": [70.370689, 20.913351]}}, {"id": "503", "type": "Feature", "properties": {"address": "South Goa 0832-2754289, Goa", "code": "VEN", "name": "VERNA", "state": "Goa", "zone": "KR"}, "geometry": {"type": "Point", "coordinates": [73.912519, 15.353587]}}, {"id": "504", "type": "Feature", "properties": {"address": "Mormugao, Goa", "code": "VSG", "name": "VASCO DA GAMA", "state": "Goa", "zone": "SWR"}, "geometry": {"type": "Point", "coordinates": [73.813425, 15.397241000000001]}}, {"id": "505", "type": "Feature", "properties": {"address": "Kasganj, Uttar Pradesh", "code": "KSJF", "name": "Kasganj Mg", "state": "Uttar Pradesh", "zone": "NER"}, "geometry": {"type": "Point", "coordinates": [78.64517, 27.801268]}}, {"id": "506", "type": "Feature", "properties": {"address": "SH 6, Rajasthan", "code": "SRDR", "name": "Sardarshahr", "state": "Rajasthan", "zone": "NWR"}, "geometry": {"type": "Point", "coordinates": [74.47905756533146, 28.439590510764504]}}, {"id": "507", "type": "Feature", "properties": {"address": "Katwa, West Bengal", "code": "KWAE", "name": "KATWA", "state": "West Bengal", "zone": "ER"}, "geometry": {"type": "Point", "coordinates": [88.124085, 23.640315]}}, {"id": "508", "type": "Feature", "properties": {"address": "Waghai, Gujarat", "code": "WGI", "name": "Waghai", "state": "Gujarat", "zone": "WR"}, "geometry": {"type": "Point", "coordinates": [73.50047372281551, 20.772638155885446]}}, {"id": "509", "type": "Feature", "properties": {"address": "Jaunpur, Uttar Pradesh", "code": "JNU", "name": "JAUNPUR JN", "state": "Uttar Pradesh", "zone": "NR"}, "geometry": {"type": "Point", "coordinates": [82.69969599999999, 25.762849]}}, {"id": "511", "type": "Feature", "properties": {"address": "Kolkata, West Bengal", "code": "SPR", "name": "Sonarpur Junction", "state": "West Bengal", "zone": "ER"}, "geometry": {"type": "Point", "coordinates": [88.429773, 22.443359]}}, {"id": "512", "type": "Feature", "properties": {"address": "Darbhanga, Bihar", "code": "BIRL", "name": "Biraul", "state": "Bihar", "zone": "ECR"}, "geometry": {"type": "Point", "coordinates": [86.233733, 25.937062]}}, {"id": "513", "type": "Feature", "properties": {"address": "Londa, Karnataka", "code": "LD", "name": "LONDA JN", "state": "Karnataka", "zone": "SWR"}, "geometry": {"type": "Point", "coordinates": [74.496982, 15.450273]}}, {"id": "514", "type": "Feature", "properties": {"address": "Mumbai, Maharashtra", "code": "BCT", "name": "Mumbai Central", "state": "Maharashtra", "zone": "WR"}, "geometry": {"type": "Point", "coordinates": [72.819383, 18.970667]}}, {"id": "515", "type": "Feature", "properties": {"address": "Rishikesh, Uttarakhand", "code": "RKSH", "name": "RISHIKESH", "state": "Uttarakhand", "zone": "NR"}, "geometry": {"type": "Point", "coordinates": [78.287498, 30.107173]}}, {"id": "516", "type": "Feature", "properties": {"address": "National Highway 34, West Bengal", "code": "STB", "name": "Shantipur", "state": "West Bengal", "zone": "ER"}, "geometry": {"type": "Point", "coordinates": [88.435028, 23.262660999999998]}}, {"id": "517", "type": "Feature", "properties": {"address": "Lalkuan, Uttarakhand", "code": "LKU", "name": "LAL KUAN", "state": "Uttarakhand", "zone": "NER"}, "geometry": {"type": "Point", "coordinates": [79.517641, 29.071574]}}, {"id": "518", "type": "Feature", "properties": {"address": "Jakhal, Haryana", "code": "JHL", "name": "JAKHAL JN", "state": "Haryana", "zone": "NR"}, "geometry": {"type": "Point", "coordinates": [75.8245009833, 29.8018131127]}}, {"id": "519", "type": "Feature", "properties": {"address": "Macherla, Andhra Pradesh", "code": "MCLA", "name": "Macherla", "state": "Andhra Pradesh", "zone": "SCR"}, "geometry": {"type": "Point", "coordinates": [79.4382772, 16.4695102]}}, {"id": "522", "type": "Feature", "properties": {"address": "Nagbhir, Maharashtra", "code": "NAB", "name": "Nagbhir Junction", "state": "Maharashtra", "zone": "SECR"}, "geometry": {"type": "Point", "coordinates": [79.700138, 20.579811999999997]}}, {"id": "523", "type": "Feature", "properties": {"address": "Baramati, Maharashtra", "code": "BRMT", "name": "Baramati", "state": "Maharashtra", "zone": "CR"}, "geometry": {"type": "Point", "coordinates": [74.5781969, 18.1536772]}}, {"id": "524", "type": "Feature", "properties": {"address": "Sri Ganganagar, Rajasthan", "code": "SGNR", "name": "SHRI GANGANAGAR", "state": "Rajasthan", "zone": "NWR"}, "geometry": {"type": "Point", "coordinates": [73.87141700000001, 29.931792]}}, {"id": "525", "type": "Feature", "properties": {"address": "Patiala, Punjab", "code": "PTA", "name": "Patiala", "state": "Punjab", "zone": "NR"}, "geometry": {"type": "Point", "coordinates": [76.4041, 30.344248999999998]}}, {"id": "526", "type": "Feature", "properties": {"address": "Phagwara Road-Hoshiarpur, Punjab", "code": "HSX", "name": "Hoshiarpur", "state": "Punjab", "zone": "NR"}, "geometry": {"type": "Point", "coordinates": [75.9055848, 31.5240737]}}, {"id": "527", "type": "Feature", "properties": {"address": "Chandausi, Uttar Pradesh", "code": "SHTS", "name": "Sambhal Hatim Sarai", "state": "Uttar Pradesh", "zone": "NR"}, "geometry": {"type": "Point", "coordinates": [78.568241, 28.596912]}}, {"id": "530", "type": "Feature", "properties": {"address": "Bhimavaram, Andhra Pradesh", "code": "BVRM", "name": "Bhimavaram Junction", "state": "Andhra Pradesh", "zone": "SCR"}, "geometry": {"type": "Point", "coordinates": [81.538335, 16.543097]}}, {"id": "531", "type": "Feature", "properties": {"address": "Firozpur, Punjab", "code": "FZR", "name": "FIROZPUR CANT", "state": "Punjab", "zone": "NR"}, "geometry": {"type": "Point", "coordinates": [74.61843900000001, 30.942486]}}, {"id": "532", "type": "Feature", "properties": {"address": "Mumbai, Maharashtra", "code": "BVI", "name": "BORIVALI", "state": "Maharashtra", "zone": "WR"}, "geometry": {"type": "Point", "coordinates": [72.85641199999999, 19.228739]}}, {"id": "535", "type": "Feature", "properties": {"address": "State Highway 10A, West Bengal", "code": "RDP", "name": "Radhikapur", "state": "West Bengal", "zone": "NFR"}, "geometry": {"type": "Point", "coordinates": [88.448153, 25.643573999999997]}}, {"id": "536", "type": "Feature", "properties": {"address": "Kotdwara, Uttarakhand", "code": "KTW", "name": "KOTDWARA", "state": "Uttarakhand", "zone": "NR"}, "geometry": {"type": "Point", "coordinates": [78.52116372309999, 29.742927896]}}, {"id": "537", "type": "Feature", "properties": {"address": "Chik Ballapur, Karnataka", "code": "CBP", "name": "Chik Ballapur", "state": "Karnataka", "zone": "SWR"}, "geometry": {"type": "Point", "coordinates": [77.7325398, 13.4313153]}}, {"id": "538", "type": "Feature", "properties": {"address": "Ghazipur, Uttar Pradesh", "code": "ARJ", "name": "AUNRIHAR JN", "state": "Uttar Pradesh", "zone": "NER"}, "geometry": {"type": "Point", "coordinates": [83.18727200000001, 25.54466]}}, {"id": "539", "type": "Feature", "properties": {"address": "MDR 11A, Madhya Pradesh", "code": "NMH", "name": "NIMACH", "state": "Madhya Pradesh", "zone": "WR"}, "geometry": {"type": "Point", "coordinates": [74.853025, 24.459872999999998]}}, {"id": "540", "type": "Feature", "properties": {"address": "Chikkajajur, Karnataka", "code": "JRU", "name": "CHIKJAJUR JN", "state": "Karnataka", "zone": "SWR"}, "geometry": {"type": "Point", "coordinates": [76.138705, 14.126112]}}, {"id": "541", "type": "Feature", "properties": {"address": "East Godavari, Andhra Pradesh", "code": "CCT", "name": "KAKINADA TOWN", "state": "Andhra Pradesh", "zone": "SCR"}, "geometry": {"type": "Point", "coordinates": [82.2329218, 16.9670099]}}, {"id": "542", "type": "Feature", "properties": {"address": "Dibrugarh, Assam", "code": "DBRT", "name": "DIBRUGARH TOWN", "state": "Assam", "zone": "NFR"}, "geometry": {"type": "Point", "coordinates": [94.9019739417, 27.4781132774]}}, {"id": "543", "type": "Feature", "properties": {"address": "Gwalior, Madhya Pradesh", "code": "GWO", "name": "Gwalior NG", "state": "Madhya Pradesh", "zone": "NCR"}, "geometry": {"type": "Point", "coordinates": [78.182282, 26.216473]}}, {"id": "544", "type": "Feature", "properties": {"address": "Dhaka, Bangladesh", "code": "DHCA", "name": "Dhaca Cantt.", "state": "Bangladesh", "zone": "?"}, "geometry": {"type": "Point", "coordinates": [90.410617, 23.815527]}}]}